bookkeeping	child_dialect_count	child_family_count	child_language_count	description	family_pk	father_pk	hid	id	jsondata	latitude	level	longitude	markup_description	name	newick	pk	status	genus_name	family	color	latlong_combined	duplicate
False	0	0	0		202	2656	aiw	aari1239	{}	5.95034	language	36.5721		Aari	'Aari [aari1239][aiw]-l-'	4424	unknown/safe	South Omotic	South Omotic	#A9A9A9	5.95034 36.5721	FALSE
False	0	0	0		376	4943	aas	aasa1238	{}	-4.00679	language	36.8648		Aasax	'Aasax [aasa1238][aas]-l-'	7144	extinct		Afro-Asiatic	#FF0000	-4.00679 36.8648	FALSE
False	0	0	0		21	19351	kbt	abad1241	{}	-9.03389	language	146.992		Abadi	'Abadi [abad1241][kbt]-l-'	20702	unknown/safe		Austronesian	#A9A9A9	-9.03389 146.992	FALSE
False	0	0	0		50	10771	abg	abag1245	{}	-6.12028	language	145.665		Abaga	'Abaga [abag1245][abg]-l-'	13588	critically endangered		Nuclear Trans New Guinea	#FF6500	-6.12028 145.665	FALSE
False	0	0	0		21	10593	abf	abai1240	{}	5.55394	language	118.306		Abai Sungai	'Abai Sungai [abai1240][abf]-l-'	13413	definitely endangered		Austronesian	#EDED21	5.55394 118.306	FALSE
False	0	0	0		10	17246	abm	aban1242	{}	6.30619	language	8.63055		Abanyom	'Abanyom [aban1242][abm]-l-'	18795	unknown/safe		Atlantic-Congo	#A9A9A9	6.30619 8.63055	FALSE
False	0	0	0		10	5196	mij	abar1238	{}	6.5805	language	10.2267		Mungbam	'Mungbam [abar1238][mij]-l-'	7603	unknown/safe		Atlantic-Congo	#A9A9A9	6.5805 10.2267	FALSE
False	0	0	0		142	142	aau	abau1245	{}	-3.97222	language	141.324		Abau	'Abau [abau1245][aau]-l-'	1214	unknown/safe	Upper Sepik	Sepik	#A9A9A9	-3.97222 141.324	FALSE
False	3	0	0		351	1603	abq	abaz1241	{}	41.1214	language	42.7273		Abaza	('Ashkaraua [ashk1247]','Bezshagh [bezs1238]','Tapanta [tapa1256]')'Abaza [abaz1241][abq]-l-'	3003	definitely endangered	Northwest Caucasian	Abkhaz-Adyge	#EDED21	41.1214 42.7273	FALSE
False	4	0	0		10	5211	aba	abee1242	{}	5.59682	language	-4.38497		Abé	('Abbey-Ve [abbe1238]','Kos [koss1238]','Morie [mori1266]','Tioffo [tiof1238]')'Abé [abee1242][aba]-l-'	7635	unknown/safe		Atlantic-Congo	#A9A9A9	5.59682 -4.38497	FALSE
False	0	0	0		21	7802	abp	aben1249	{}	15.4131	language	120.2		Abenlen Ayta	'Abenlen Ayta [aben1249][abp]-l-'	10439	unknown/safe		Austronesian	#A9A9A9	15.4131 120.2	FALSE
False	2	0	0		10	5211	abi	abid1235	{}	5.65656	language	-4.58421		Abidji	('Enyembe [enye1238]','Ogbru [ogbr1242]')'Abidji [abid1235][abi]-l-'	7634	unknown/safe	Kwa	Atlantic-Congo	#A9A9A9	5.65656 -4.58421	FALSE
False	0	0	0				bsa	abin1243	{}	-2.92281	language	138.891		Abinomn	'Abinomn [abin1243][bsa]-l-'	255	unknown/safe			#A9A9A9	-2.92281 138.891	FALSE
False	0	0	0		41	615	axb	abip1241	{}	-29	language	-61		Abipon	'Abipon [abip1241][axb]-l-'	2003	extinct		Guaicuruan	#FF0000	-29 -61	FALSE
False	0	0	0				ash	abis1238	{}	-0.69386	language	-75.2183		Aewa	'Aewa [abis1238][ash]-l-'	341	extinct			#FF0000	-0.69386 -75.2183	FALSE
False	3	0	0		351	1603	abk	abkh1244	{}	43.056218	language	41.159115		Abkhazian	('Abzhui [abzh1238]','Bzyb [bzyb1238]','Samurzakan [samu1242]')'Abkhazian [abkh1244][abk]-l-'	3002	vulnerable	Northwest Caucasian	Abkhaz-Adyge	#CBCB65	43.056218 41.159115	FALSE
False	0	0	0		201	1347	aob	abom1238	{}	-8.42448	language	142.842		Abom	'Abom [abom1238][aob]-l-'	2654	unknown/safe		Anim	#A9A9A9	-8.42448 142.842	FALSE
False	0	0	0		10	10171	abo	abon1238	{}	6.90621	language	10.8769		Abon	'Abon [abon1238][abo]-l-'	12845	unknown/safe		Atlantic-Congo	#A9A9A9	6.90621 10.8769	FALSE
False	0	0	0		10	12970	abr	abro1238	{}	7.72094	language	-2.50289		Abron	'Abron [abro1238][abr]-l-'	15585	unknown/safe		Atlantic-Congo	#A9A9A9	7.72094 -2.50289	FALSE
False	4	0	0		10	7522	abn	abua1244	{}	4.83057	language	6.61492		Abua	('Central Abuan [cent2029]','Emughan [emug1238]','Okpeden [okpe1247]','Otapha [otap1238]')'Abua [abua1244][abn]-l-'	10054	unknown/safe		Atlantic-Congo	#A9A9A9	4.83057 6.61492	FALSE
False	3	0	0		192	2552	abz	abui1241	{}	-8.31058	language	124.588		Abui	('Alakaman [alak1254]','Atimelang [atim1239]','Kobola [kobo1247]')'Abui [abui1241][abz]-l-'	4325	unknown/safe	Greater Alor	Timor-Alor-Pantar	#A9A9A9	-8.31058 124.588	FALSE
False	3	0	0				kgr	abun1252	{}	-0.57073	language	132.416		Abun	('Abun Je [abun1253]','Abun Ji [abun1255]','Abun Tat [abun1254]')'Abun [abun1252][kgr]-l-'	176	unknown/safe	North-Central Bird's Head		#A9A9A9	-0.57073 132.416	FALSE
False	0	0	0		10	10231	abu	abur1243	{}	5.21534	language	-3.64123		Abure	'Abure [abur1243][abu]-l-'	12968	unknown/safe		Atlantic-Congo	#A9A9A9	5.21534 -3.64123	FALSE
False	0	0	0		10	7521	mgj	abur1244	{}	4.62301	language	6.50634		Abureni	'Abureni [abur1244][mgj]-l-'	10050	unknown/safe		Atlantic-Congo	#A9A9A9	4.62301 6.50634	FALSE
False	3	0	0		264	1468	ado	abuu1241	{}	-4.24027	language	144.474		Abu	('Auwa [auwa1242]','Nuclear Abu [nucl1640]','Sabu {Papua New Guinea} [sabu1256]')'Abu [abuu1241][ado]-l-'	2817	unknown/safe		Lower Sepik-Ramu	#A9A9A9	-4.24027 144.474	FALSE
False	3	0	0		383	7228	tpx	acat1239	{}	17.1034	language	-99.0602		Acatepec Me'phaa	('Acatepec [acat1240]','Platanillo [plat1255]','Zapotitlán Tablas [zapo1435]')'Acatepec Me'phaa [acat1239][tpx]-l-'	9676	unknown/safe		Otomanguean	#A9A9A9	17.1034 -99.0602	FALSE
False	3	0	0		151	11639	acn	acha1249	{}	24.3479	language	97.7438		Longchuan Achang	('Longchuan [long1373]','Maingtha [main1270]','Xiandao [xian1249][xia]')'Longchuan Achang [acha1249][acn]-l-'	14449	unknown/safe	Burmese-Lolo	Sino-Tibetan	#A9A9A9	24.3479 97.7438	FALSE
False	0	0	0		79	8322	aca	acha1250	{}	4.38649	language	-72.2005		Achagua	'Achagua [acha1250][aca]-l-'	10978	severely endangered		Arawakan	#FFCB00	4.38649 -72.2005	FALSE
False	0	0	0		151	11612	yif	ache1244	{}	24.152	language	102.446		Ache	'Ache [ache1244][yif]-l-'	14415	unknown/safe		Sino-Tibetan	#A9A9A9	24.152 102.446	FALSE
False	2	0	0		51	2042	acz	ache1245	{}	10.8827	language	30.3187		Acheron	('Eastern Acheron [east2430]','Western Acheron [west2504]')'Acheron [ache1245][acz]-l-'	3713	severely endangered		Narrow Talodi	#FFCB00	10.8827 30.3187	FALSE
False	0	0	0		298	6770	guq	ache1246	{}	-25.5865	language	-56.4697		Aché	'Aché [ache1246][guq]-l-'	9293	definitely endangered	Tupi-Guaraní	Tupian	#EDED21	-25.5865 -56.4697	FALSE
False	0	0	0		304	9317	acr	achi1256	{}	15.073	language	-90.3513		Achi	'Achi [achi1256][acr]-l-'	12064	vulnerable		Mayan	#CBCB65	15.073 -90.3513	FALSE
False	7	0	0		21	7886	ace	achi1257	{}	3.90757	language	96.6032		Achinese	('Banda Aceh [band1356]','Baruh [baru1270]','Bueng [buen1246]','Daja {Indonesia} [daja1241]','Pase [pase1241]','Pidie [pidi1241]','Tunong [tuno1237]')'Achinese [achi1257][ace]-l-'	10622	unknown/safe	Malayo-Sumbawan	Austronesian	#A9A9A9	3.90757 96.6032	FALSE
False	0	0	0		89	13717	act	acht1238	{}	52.021	language	6.47521		Achterhoeks	'Achterhoeks [acht1238][act]-l-'	16114	vulnerable		Indo-European	#CBCB65	52.021 6.47521	FALSE
False	0	0	0		45	45	acv	achu1247	{}	41.0979	language	-121.191		Achumawi	'Achumawi [achu1247][acv]-l-'	620	critically endangered	Palaihnihan	Palaihnihan	#FF6500	41.0979 -121.191	FALSE
False	2	0	0		391	1739	acu	achu1248	{}	-2.82646	language	-77.2641		Achuar-Shiwiar	('Achuar [achu1249]','Shiwiar [shiw1235]')'Achuar-Shiwiar [achu1248][acu]-l-'	3277	definitely endangered	Jivaroan	Chicham	#EDED21	-2.82646 -77.2641	FALSE
False	3	0	0		429	5129	ach	acol1236	{}	3.57738	language	32.5147		Acoli	('Dhopaluo [dhop1238]','Labwor [labw1238][lth]','Nyakwai [nyak1263]')'Acoli [acol1236][ach]-l-'	7417	unknown/safe	Nilotic	Nilotic	#A9A9A9	3.57738 32.5147	FALSE
False	0	0	0		58	2076	acs	acro1239	{}	-12.594	language	-40.21445		Acroá	'Acroá [acro1239][acs]-l-'	3739	extinct		Nuclear-Macro-Je	#FF0000	-12.594 -40.21445	FALSE
False	0	0	0				xad	adai1235	{}	31.6314	language	-92.0059		Adai	'Adai [adai1235][xad]-l-'	276	extinct			#FF0000	31.6314 -92.0059	FALSE
False	0	0	0		193	1329	ads	adam1238	{}	5.834	language	-0.151		Adamorobe Sign Language	'Adamorobe Sign Language [adam1238][ads]-l-'	2599	unknown/safe	Sign Languages	Sign Language	#A9A9A9	5.834 -0.151	FALSE
False	7	0	0		10	7695	fub	adam1253	{}	8.140326	language	13.077338		Adamawa Fulfulde	('Bilkire Fulani [bilk1238]','Garoua [garo1248]','Gombe [gomb1248]','Kambariire [kamb1295]','Maroua Fulfulde [maro1243]','Ngaondéré [ngao1243]','Nomadic Fulfulde [noma1259]')'Adamawa Fulfulde [adam1253][fub]-l-'	10333	unknown/safe	Northern Atlantic	Atlantic-Congo	#A9A9A9	8.140326 13.077338	FALSE
False	6	0	0		10	3455	ada	adan1247	{}	5.9437	language	0.13243		Adangme	('Ada [adaa1238]','Gbugbla [gbug1238]','Krobo [krob1243]','Ningo [ning1270]','Osu [osuu1238]','Shai [shai1238]')'Adangme [adan1247][ada]-l-'	5204	unknown/safe		Atlantic-Congo	#A9A9A9	5.9437 0.13243	FALSE
False	0	0	0		10	5215	adq	adan1248	{}	6.50546	language	0.727155		Adangbe	'Adangbe [adan1248][adq]-l-'	7664	unknown/safe		Atlantic-Congo	#A9A9A9	6.50546 0.727155	FALSE
False	1	0	0		192	9124	adn	adan1251	{}	-8.18958	language	124.448		Adang	('Aimoli [aimo1245]')'Adang [adan1251][adn]-l-'	12000	unknown/safe	Greater Alor	Timor-Alor-Pantar	#A9A9A9	-8.18958 124.448	FALSE
False	2	0	0		21	7821	tiu	adas1235	{}	17.8187	language	120.905		Adasen	('Eastern Addasen [east2476]','Western Addasen [west2551]')'Adasen [adas1235][tiu]-l-'	10490	unknown/safe		Austronesian	#A9A9A9	17.8187 120.905	FALSE
False	2	0	0		10	5202	ade	adel1244	{}	8.16975	language	0.619185		Adele	('Lower Adele [lowe1404]','Upper Adele [uppe1417]')'Adele [adel1244][ade]-l-'	7614	unknown/safe		Atlantic-Congo	#A9A9A9	8.16975 0.619185	FALSE
False	0	0	0		429	9847	adh	adho1243	{}	0.73235	language	34.0341		Adhola	'Adhola [adho1243][adh]-l-'	12523	unknown/safe		Nilotic	#A9A9A9	0.73235 34.0341	FALSE
False	0	0	0		10	5211	adj	adio1239	{}	5.38228	language	-4.52522		Adioukrou	'Adioukrou [adio1239][adj]-l-'	7633	unknown/safe	Kwa	Atlantic-Congo	#A9A9A9	5.38228 -4.52522	FALSE
False	0	0	0		89	8445	ort	adiv1239	{}	18.1046	language	82.8487		Kotia-Adivasi Oriya-Desiya	'Kotia-Adivasi Oriya-Desiya [adiv1239][ort]-l-'	11114	unknown/safe	Indic	Indo-European	#A9A9A9	18.1046 82.8487	FALSE
False	0	0	0		89	11169	gas	adiw1235	{}	24.0712	language	73.1426		Adiwasi Garasia	'Adiwasi Garasia [adiw1235][gas]-l-'	13993	unknown/safe		Indo-European	#A9A9A9	24.0712 73.1426	FALSE
False	0	0	0		66	5788	adt	adny1235	{}	-30.1451	language	138.671		Adnyamathanha	'Adnyamathanha [adny1235][adt]-l-'	8248	definitely endangered		Pama-Nyungan	#EDED21	-30.1451 138.671	FALSE
False	3	0	0		21	17800	adr	adon1237	{}	-8.32027	language	123.159		Adonara	('East Adonara [east2470]','East Solor [east2469]','West Adonara [west2544]')'Adonara [adon1237][adr]-l-'	19592	unknown/safe		Austronesian	#A9A9A9	-8.32027 123.159	FALSE
False	5	0	0		351	1601	ady	adyg1241	{}	44	language	39.33		Adyghe	('Abadzex [abad1240]','Bezhedukh [bezh1247]','Natuzaj [natu1243]','Shapsug [shap1240]','Xakuchi [xaku1238]')'Adyghe [adyg1241][ady]-l-'	3001	vulnerable	Northwest Caucasian	Abkhaz-Adyge	#CBCB65	44 39.33	FALSE
False	0	0	0		21	19400	adz	adze1240	{}	-6.39394	language	146.294		Adzera	'Adzera [adze1240][adz]-l-'	20781	unknown/safe	Oceanic	Austronesian	#A9A9A9	-6.39394 146.294	FALSE
False	3	0	0		74	74	awi	aeky1238	{}	-5.88478	language	141.532		Aekyom	('East Awin [east2522]','North Awin [nort2932]','South Awin [sout2952]')'Aekyom [aeky1238][awi]-l-'	694	unknown/safe	Awin-Pare	Awin-Pa	#A9A9A9	-5.88478 141.532	FALSE
False	2	0	0		89	14015	aeq	aerr1238	{}	25.254	language	69.029		Aer	('Jamesabad Aer [jame1238]','Jikrio Goth Aer [jikr1238]')'Aer [aerr1238][aeq]-l-'	16238	unknown/safe		Indo-European	#A9A9A9	25.254 69.029	FALSE
False	0	0	0		376	12263	aal	afad1236	{}	12.0551	language	14.6343		Afade	'Afade [afad1236][aal]-l-'	14845	unknown/safe	Biu-Mandara	Afro-Asiatic	#A9A9A9	12.0551 14.6343	FALSE
False	4	0	0		376	7149	aar	afar1241	{}	12.2281	language	41.8083		Afar	('Aussa [auss1240]','Baadu [baad1239]','Central Afar [cent2192]','Northern Afar [nort3052]')'Afar [afar1241][aar]-l-'	9535	unknown/safe		Afro-Asiatic	#A9A9A9	12.2281 41.8083	FALSE
False	0	0	0		206	206	aft	afit1238	{}	12.446	language	30.7611		Afitti	'Afitti [afit1238][aft]-l-'	1356	severely endangered		Nyimang	#FFCB00	12.446 30.7611	FALSE
False	3	0	0		89	10985	afr	afri1274	{}	-22	language	30		Afrikaans	('Cape Afrikaans [cape1241]','East Cape Afrikaans [east2693]','Orange River Afrikaans [oran1263]')'Afrikaans [afri1274][afr]-l-'	13720	unknown/safe	Germanic	Indo-European	#A9A9A9	-22 30	FALSE
False	0	0	0		89	22587	afs	afro1254	{}	31.7843	language	-99.2934		Afro-Seminole Creole	'Afro-Seminole Creole [afro1254][afs]-l-'	22850	unknown/safe		Indo-European	#A9A9A9	31.7843 -99.2934	FALSE
False	0	0	0		395	1765	agi	agar1251	{}	24.5024	language	82.297		Agariya	'Agariya [agar1251][agi]-l-'	3308	unknown/safe		Unattested	#A9A9A9	24.5024 82.297	FALSE
False	0	0	0		50	5519	agd	agar1252	{}	-6.20604	language	145.917		Agarabi	'Agarabi [agar1252][agd]-l-'	8063	unknown/safe	Eastern Highlands	Nuclear Trans New Guinea	#A9A9A9	-6.20604 145.917	FALSE
False	0	0	0		10	10143	agc	agat1236	{}	7.97915	language	7.71639		Agatu	'Agatu [agat1236][agc]-l-'	12801	unknown/safe		Atlantic-Congo	#A9A9A9	7.97915 7.71639	FALSE
False	0	0	0		395	1775	avo	agav1236	{}	-13.29849	language	-53.43936		Agavotaguerra	'Agavotaguerra [agav1236][avo]-l-'	3313	extinct		Unattested	#FF0000	-13.29849 -53.43936	FALSE
False	0	0	0		10	15534	agq	aghe1239	{}	6.38956	language	10.0807		Aghem	'Aghem [aghe1239][agq]-l-'	17526	unknown/safe	Bantoid	Atlantic-Congo	#A9A9A9	6.38956 10.0807	FALSE
False	4	0	0		371	7051	agx	aghu1253	{}	41.9242	language	47.5843		Aghul	('Agul [agul1244]','Gekxun [gekx1238]','Keren [kere1281]','Koshan [kosh1245]')'Aghul [aghu1253][agx]-l-'	9459	definitely endangered	Lezgic	Nakh-Daghestanian	#EDED21	41.9242 47.5843	FALSE
False	0	0	0		66	2153	ggr	aghu1254	{}	-13.735	language	142.426		Aghu Tharnggalu	'Aghu Tharnggalu [aghu1254][ggr]-l-'	3855	extinct		Pama-Nyungan	#FF0000	-13.735 142.426	FALSE
False	0	0	0		50	10867	ahh	aghu1255	{}	-6.34674	language	140.043		Aghu	'Aghu [aghu1255][ahh]-l-'	13639	unknown/safe	Awju-Dumut	Nuclear Trans New Guinea	#A9A9A9	-6.34674 140.043	FALSE
False	0	0	0		371	4861	xag	aghw1237	{}	40.374444	language	47.126667		Aghwan	'Aghwan [aghw1237][xag]-l-'	7049	extinct		Nakh-Daghestanian	#FF0000	40.374444 47.126667	FALSE
False	0	0	0		353	3009	aif	agii1245	{}	-3.49104	language	142.387		Agi	'Agi [agii1245][aif]-l-'	4729	unknown/safe		Nuclear Torricelli	#A9A9A9	-3.49104 142.387	FALSE
False	3	0	0		316	316	kit	agob1244	{}	-9.08521	language	142.532		Agob-Ende-Kawam	('Agöb [agob1245]','Ende {papua New Guinea} [ende1235]','Kawam [kawa1281]')'Agob-Ende-Kawam [agob1244][kit]-l-'	1554	unknown/safe		Pahoturi	#A9A9A9	-9.08521 142.532	FALSE
False	1	0	0		10	7537	ibm	agoi1246	{}	5.87953	language	8.21629		Agoi	('Iko {Agoi} [ikoo1244]')'Agoi [agoi1246][ibm]-l-'	10072	unknown/safe		Atlantic-Congo	#A9A9A9	5.87953 8.21629	FALSE
False	0	0	0		395	1775	aga	agua1251	{}	-5.25	language	-75.8333		Aguano	'Aguano [agua1251][aga]-l-'	3312	extinct		Unattested	#FF0000	-5.25 -75.8333	FALSE
False	0	0	0		304	6787	agu	agua1252	{}	15.3307	language	-91.3153		Aguacateco	'Aguacateco [agua1252][agu]-l-'	9313	unknown/safe	Mayan	Mayan	#A9A9A9	15.3307 -91.3153	FALSE
False	0	0	0		391	391	agr	agua1253	{}	-5.30044	language	-77.9218		Aguaruna	'Aguaruna [agua1253][agr]-l-'	1740	vulnerable	Jivaroan	Chicham	#CBCB65	-5.30044 -77.9218	FALSE
False	0	0	0		10	5215	aug	agun1238	{}	7.49256	language	1.74452		Aguna	'Aguna [agun1238][aug]-l-'	7665	unknown/safe		Atlantic-Congo	#A9A9A9	7.49256 1.74452	FALSE
False	3	0	0		21	15821	msm	agus1235	{}	8.62731	language	125.742		Agusan Manobo	('Adgawan [adga1237]','Surigao Manobo [suri1270]','Umayam [umay1237]')'Agusan Manobo [agus1235][msm]-l-'	17888	unknown/safe		Austronesian	#A9A9A9	8.62731 125.742	FALSE
False	0	0	0		21	3548	agn	agut1237	{}	10.5328	language	119.655		Agutaynen	'Agutaynen [agut1237][agn]-l-'	5389	unknown/safe		Austronesian	#A9A9A9	10.5328 119.655	FALSE
False	7	0	0		10	15325	yay	agwa1247	{}	5.81055	language	8.03166		Agwagwune	('Abayongo [abay1238]','Abini [abin1242]','Adim [adim1238]','Erei [erei1238]','Etono II [eton1252]','Nuclear Agwagwune [nucl1375]','Orum [orum1242]')'Agwagwune [agwa1247][yay]-l-'	17184	unknown/safe		Atlantic-Congo	#A9A9A9	5.81055 8.03166	FALSE
False	0	0	0		10	15589	aha	ahan1243	{}	4.85147	language	-1.94657		Ahanta	'Ahanta [ahan1243][aha]-l-'	17599	unknown/safe		Atlantic-Congo	#A9A9A9	4.85147 -1.94657	FALSE
False	0	0	0		10	5188	ahn	ahan1244	{}	7.44139	language	6.00896		Àhàn	'Àhàn [ahan1244][ahn]-l-'	7563	unknown/safe		Atlantic-Congo	#A9A9A9	7.44139 6.00896	FALSE
False	0	0	0		143	2394	thm	aheu1239	{}	17.7655	language	104.229		Thavung	'Thavung [aheu1239][thm]-l-'	4134	definitely endangered		Austroasiatic	#EDED21	17.7655 104.229	FALSE
False	2	0	0		21	17879		ahin1234	{}	16.321	language	120.90003		Ahin-Kayapa Kalanguya	('Kayapa Kallahan [kaya1320]','Tinoc Kallahan [tino1235][tne]')'Ahin-Kayapa Kalanguya [ahin1234][kak]-l-'	19649	unknown/safe		Austronesian	#A9A9A9	16.321 120.90003	FALSE
False	0	0	0		23	16077	aho	ahom1240	{}	27.2778	language	88.464		Ahom	'Ahom [ahom1240][aho]-l-'	18167	extinct		Tai-Kadai	#FF0000	27.2778 88.464	FALSE
False	0	0	0		196	4403	aht	ahte1237	{}	61.7068	language	-144.889		Ahtena	'Ahtena [ahte1237][aht]-l-'	6563	critically endangered	Athapaskan	Athapaskan-Eyak-Tlingit	#FF6500	61.7068 -144.889	FALSE
False	0	0	0		10	3442	nfd	ahwa1235	{}	9.17635	language	8.56205		Ndunic	'Ndunic [ahwa1235][nfd]-l-'	5164	unknown/safe		Atlantic-Congo	#A9A9A9	9.17635 8.56205	FALSE
False	2	0	0		23	7957	aih	aich1238	{}	25.4908	language	107.844		Ai-Cham	('Boyao [boya1241]','Di'e [diee1238]')'Ai-Cham [aich1238][aih]-l-'	10718	unknown/safe		Tai-Kadai	#A9A9A9	25.4908 107.844	FALSE
False	3	0	0		21	21739	aix	aigh1235	{}	-5.99488	language	150.272		Aighon	('Aigon [aigo1239]','Apsokok [apso1237]','Bao [baoo1237]')'Aighon [aigh1235][aix]-l-'	22447	unknown/safe		Austronesian	#A9A9A9	-5.99488 150.272	FALSE
False	1	0	0				tba	aika1237	{}	-12.6695	language	-60.5353		Aikanã	('Masaká [masa1312]')'Aikanã [aika1237][tba]-l-'	396	definitely endangered	Aikaná		#EDED21	-12.6695 -60.5353	FALSE
False	0	0	0		21	22441	mwg	aikl1237	{}	-6.23575	language	149.571		Aiklep	'Aiklep [aikl1237][mwg]-l-'	22787	unknown/safe		Austronesian	#A9A9A9	-6.23575 149.571	FALSE
False	10	0	0		89	16339	aiq	aima1241	{}	35.283	language	59.1756		Aimaq	('Chinghizi [chin1474]','Firozkohi [firo1239]','Jamshidi [jams1238]','Maliki [mali1277]','Mizmast [mizm1238]','Taimani [taim1249]','Taimuri [taim1248]','Teimuri [teim1238]','Zainal [zain1238]','Zohri [zohr1238]')'Aimaq [aima1241][aiq]-l-'	18293	unknown/safe		Indo-European	#A9A9A9	35.283 59.1756	FALSE
False	0	0	0		283	1499	ail	aime1238	{}	-6.68656	language	142.656		Aimele	'Aimele [aime1238][ail]-l-'	2856	unknown/safe		Bosavi	#A9A9A9	-6.68656 142.656	FALSE
False	1	0	0		151	6273	aim	aimo1244	{}	24.6437	language	94.3556		Aimol	('Langrong [lang1312]')'Aimol [aimo1244][aim]-l-'	8780	critically endangered		Sino-Tibetan	#FF6500	24.6437 94.3556	FALSE
False	0	0	0		317	2931	aic	ainb1238	{}	-3.09214	language	141.149		Ainbai	'Ainbai [ainb1238][aic]-l-'	4637	severely endangered		Border	#FFCB00	-3.09214 141.149	FALSE
False	2	0	0		54	641	ain	ainu1240	{}	43.633654	language	142.46167		Hokkaido Ainu	('Hokkaido [hokk1243]','Taraika [tara1248]')'Hokkaido Ainu [ainu1240][ain]-l-'	2053	critically endangered	Ainu	Ainu	#FF6500	43.633654 142.46167	FALSE
False	0	0	0		118	6085	aib	ainu1251	{}	39.2714	language	76.4209		Ainu (China)	'Ainu {China} [ainu1251][aib]-l-'	8556	unknown/safe	Turkic	Turkic	#A9A9A9	39.2714 76.4209	FALSE
False	0	0	0		264	4554	aki	aiom1240	{}	-5.13467	language	144.765		Aiome	'Aiome [aiom1240][aki]-l-'	6730	unknown/safe		Lower Sepik-Ramu	#A9A9A9	-5.13467 144.765	FALSE
False	0	0	0		159	2495	air	airo1242	{}	-1.8522	language	138.158		Airoran	'Airoran [airo1242][air]-l-'	4290	unknown/safe		Greater Kwerba	#A9A9A9	-1.8522 138.158	FALSE
False	0	0	0		23	19795	aio	aito1238	{}	26.5145	language	92.3169		Aiton	'Aiton [aito1238][aio]-l-'	21014	severely endangered		Tai-Kadai	#FFCB00	26.5145 92.3169	FALSE
False	6	0	0		10	3458	ajg	ajab1235	{}	7.06634	language	1.64992		Aja (Benin)	('Dogbo [dogb1238]','Dogo {Benin} [dogo1292]','Hwe [hwee1238]','Sikpi [sikp1238]','Tado {Benin} [tado1245]','Tala {Benin} [tala1280]')'Aja {Benin} [ajab1235][ajg]-l-'	5213	unknown/safe	Kwa	Atlantic-Congo	#A9A9A9	7.06634 1.64992	FALSE
False	0	0	0		239	239	aja	ajas1235	{}	8.58003	language	25.6122		Aja (Sudan)	'Aja {Sudan} [ajas1235][aja]-l-'	1415	critically endangered	Kresh	Kresh-Aja	#FF6500	8.58003 25.6122	FALSE
False	0	0	0		376	7182	ajw	ajaw1236	{}	10.21	language	9.89205		Ajawa	'Ajawa [ajaw1236][ajw]-l-'	9606	extinct		Afro-Asiatic	#FF0000	10.21 9.89205	FALSE
False	0	0	0		21	17705	aji	ajie1238	{}	-21.3029	language	165.468		Ajië	'Ajië [ajie1238][aji]-l-'	19438	unknown/safe	Oceanic	Austronesian	#A9A9A9	-21.3029 165.468	FALSE
False	0	0	0		79	10970	cpc	ajyi1238	{}	-9.82364	language	-74.61947		Ajyíninka Apurucayali	'Ajyíninka Apurucayali [ajyi1238][cpc]-l-'	13705	vulnerable		Arawakan	#CBCB65	-9.82364 -74.61947	FALSE
False	0	0	0		370	1696	soh	akaa1242	{}	11.2101	language	33.6524		Aka	'Aka [akaa1242][soh]-l-'	3156	critically endangered		Eastern Jebel	#FF6500	11.2101 33.6524	FALSE
False	0	0	0		312	4617	akm	akab1248	{}	12.3629	language	92.8011		Aka-Bo	'Aka-Bo [akab1248][akm]-l-'	6801	extinct		Great Andamanese	#FF0000	12.3629 92.8011	FALSE
False	0	0	0		312	2905	abj	akab1249	{}	12.3782	language	92.7818		Aka-Bea	'Aka-Bea [akab1249][abj]-l-'	4622	extinct	Great Andamanese	Great Andamanese	#FF0000	12.3782 92.7818	FALSE
False	0	0	0		312	4617	aci	akac1240	{}	13.49086	language	92.94855		Aka-Cari	'Aka-Cari [akac1240][aci]-l-'	6800	extinct	Great Andamanese	Great Andamanese	#FF0000	13.49086 92.94855	FALSE
False	1	0	0		312	4618	akj	akaj1239	{}	13.1525	language	92.9504		Aka-Jeru	('Mixed Great Andamanese [mixe1288][gac]')'Aka-Jeru [akaj1239][akj]-l-'	6803	extinct		Great Andamanese	#FF0000	13.1525 92.9504	FALSE
False	0	0	0		312	4618	ack	akak1251	{}	12.0944	language	92.7466		Aka-Kora	'Aka-Kora [akak1251][ack]-l-'	6802	extinct		Great Andamanese	#FF0000	12.0944 92.7466	FALSE
False	0	0	0		312	1546	akx	akak1252	{}	12.8494	language	92.8227		Aka-Kede	'Aka-Kede [akak1252][akx]-l-'	2903	extinct	Great Andamanese	Great Andamanese	#FF0000	12.8494 92.8227	FALSE
False	0	0	0		312	4619	aky	akak1253	{}	12.73253	language	92.78661		Aka-Kol	'Aka-Kol [akak1253][aky]-l-'	6805	extinct		Great Andamanese	#FF0000	12.73253 92.78661	FALSE
False	10	0	0		10	12970	aka	akan1250	{}	6.34756	language	-1.33254		Akan	('Agona [agon1238]','Ahafo [ahaf1238]','Akyem Bosome [akye1239]','Asen [asen1242]','Dankyira [dank1238]','Fante [fant1241][fat]','Kwawu [kwaw1238]',('Akuapem [akua1239]','Asante [asan1239]')'Twi [twii1234][twi]')'Akan [akan1250][aka]-l-'	15586	unknown/safe	Kwa	Atlantic-Congo	#A9A9A9	6.34756 -1.33254	FALSE
False	0	0	0		312	2905	acl	akar1243	{}	12.6663	language	92.8278		Akar-Bale	'Akar-Bale [akar1243][acl]-l-'	4621	extinct		Great Andamanese	#FF0000	12.6663 92.8278	FALSE
False	0	0	0		10	21242	aks	akas1242	{}	8.8858	language	1.37035		Akaselem	'Akaselem [akas1242][aks]-l-'	22063	unknown/safe		Atlantic-Congo	#A9A9A9	8.8858 1.37035	FALSE
False	0	0	0		374	7093	ake	akaw1239	{}	6.16277	language	-60.862		Akawaio	'Akawaio [akaw1239][ake]-l-'	9483	vulnerable	Cariban	Cariban	#CBCB65	6.16277 -60.862	FALSE
False	0	0	0		10	5207	keu	akeb1238	{}	7.78365	language	0.77668		Akebu	'Akebu [akeb1238][keu]-l-'	7624	unknown/safe		Atlantic-Congo	#A9A9A9	7.78365 0.77668	FALSE
False	0	0	0		10	10037	aik	akee1238	{}	8.59543	language	8.75768		Ake	'Ake [akee1238][aik]-l-'	12711	unknown/safe		Atlantic-Congo	#A9A9A9	8.59543 8.75768	FALSE
False	0	0	0		21	17765	tsr	akei1237	{}	-15.6377	language	166.767		Akei	'Akei [akei1237][tsr]-l-'	19529	unknown/safe		Austronesian	#A9A9A9	-15.6377 166.767	FALSE
False	2	0	0		151	16493	ahk	akha1245	{}	21.2309	language	100.964		Akha	('Ako [akoo1247]','Asong [ason1245]')'Akha [akha1245][ahk]-l-'	18490	unknown/safe	Burmese-Lolo	Sino-Tibetan	#A9A9A9	21.2309 100.964	FALSE
False	0	0	0		371	4866	akv	akhv1239	{}	42.4003	language	46.3037		Akhvakh	'Akhvakh [akhv1239][akv]-l-'	7071	definitely endangered	Avar-Andic-Tsezic	Nakh-Daghestanian	#EDED21	42.4003 46.3037	FALSE
False	0	0	0		385	5018	sia	akka1237	{}	67.8625	language	32.4046		Akkala Sami	'Akkala Sami [akka1237][sia]-l-'	7278	extinct		Uralic	#FF0000	67.8625 32.4046	FALSE
False	0	0	0		142	1219	akq	akkk1240	{}	-3.57026	language	141.784		Ak	'Ak [akkk1240][akq]-l-'	2380	severely endangered		Sepik	#FFCB00	-3.57026 141.784	FALSE
False	0	0	0		21	13277	akl	akla1241	{}	11.5543	language	122.354		Aklanon	'Aklanon [akla1241][akl]-l-'	15857	unknown/safe	Greater Central Philippine	Austronesian	#A9A9A9	11.5543 122.354	FALSE
False	0	0	0		21	22442	akt	akol1237	{}	-6.22711	language	150.182		Akolet	'Akolet [akol1237][akt]-l-'	22792	unknown/safe		Austronesian	#A9A9A9	-6.22711 150.182	FALSE
False	7	0	0		10	20350	bss	akoo1248	{}	4.9243	language	9.65522		Akoose	('Elung [elun1242]','Mwambong [mwam1246]','Mwamenam [mwam1245]','Ninong [nino1238]','Northern Bakossi [nort2803]','Southern Bakossi [sout2818]','Western Bakossi [west2478]')'Akoose [akoo1248][bss]-l-'	21500	unknown/safe		Atlantic-Congo	#A9A9A9	4.9243 9.65522	FALSE
False	0	0	0		323	4666	miw	akoy1238	{}	-7.66067	language	145.669		Akoye	'Akoye [akoy1238][miw]-l-'	6845	unknown/safe		Angan	#A9A9A9	-7.66067 145.669	FALSE
False	0	0	0		10	5192	akf	akpa1238	{}	7.32586	language	8.01629		Akpa	'Akpa [akpa1238][akf]-l-'	7580	unknown/safe		Atlantic-Congo	#A9A9A9	7.32586 8.01629	FALSE
False	9	0	0		10	3445	ibe	akpe1248	{}	7.50256	language	5.95559		Akpes	('Akunnu [akun1239]','Ase [asee1238]','Daja [daja1240]','Efifa [efif1238]','Esuku [esuk1238]','Gedegede [gede1241]','Ibaram [ibar1241]','Ikorom [ikor1238]','Iyani [iyan1238]')'Akpes [akpe1248][ibe]-l-'	5180	unknown/safe		Atlantic-Congo	#A9A9A9	7.50256 5.95559	FALSE
False	0	0	0		10	10035	NOCODE_Akpondu	akpo1243	{}	9.235232	language	8.545454		Akpondu	'Akpondu [akpo1243]-l-'	12708	extinct		Atlantic-Congo	#FF0000	9.235232 8.545454	FALSE
False	0	0	0		264	2815	afi	akru1241	{}	-4.88687	language	144.821		Chini	'Chini [akru1241][afi]-l-'	4558	unknown/safe		Lower Sepik-Ramu	#A9A9A9	-4.88687 144.821	FALSE
False	0	0	0		10	12796	ayk	akuk1235	{}	7.40354	language	6.34264		Akuku	'Akuku [akuk1235][ayk]-l-'	15352	unknown/safe		Atlantic-Congo	#A9A9A9	7.40354 6.34264	FALSE
False	0	0	0		10	7500	aku	akum1238	{}	6.85716	language	9.96261		Akum	'Akum [akum1238][aku]-l-'	10015	critically endangered		Atlantic-Congo	#FF6500	6.85716 9.96261	FALSE
False	0	0	0		298	4595	aqz	akun1241	{}	-12.8322	language	-60.9716		Akuntsu	'Akuntsu [akun1241][aqz]-l-'	6767	unknown/safe		Tupian	#A9A9A9	-12.8322 -60.9716	FALSE
False	0	0	0		374	4896	ako	akur1238	{}	3.19607	language	-55.6294		Akurio	'Akurio [akur1238][ako]-l-'	7098	critically endangered		Cariban	#FF6500	3.19607 -55.6294	FALSE
False	0	0	0		10	12917	akw	akwa1248	{}	-0.39897	language	15.4623		Akwa	'Akwa [akwa1248][akw]-l-'	15511	unknown/safe		Atlantic-Congo	#A9A9A9	-0.39897 15.4623	FALSE
False	0	0	0		152	1264	akz	alab1237	{}	30.76738	language	-94.62848		Alabama	'Alabama [alab1237][akz]-l-'	2484	definitely endangered	Muskogean	Muskogean	#EDED21	30.76738 -94.62848	FALSE
False	0	0	0		21	7842	dul	alab1246	{}	14.1217	language	122.014		Alabat Island Agta	'Alabat Island Agta [alab1246][dul]-l-'	10536	critically endangered		Austronesian	#FF6500	14.1217 122.014	FALSE
False	0	0	0		376	12260	alw	alab1254	{}	7.39014	language	38.1732		Alaba-K'abeena	'Alaba-K'abeena [alab1254][alw]-l-'	14837	unknown/safe		Afro-Asiatic	#A9A9A9	7.39014 38.1732	FALSE
False	0	0	0		59	59	NOCODE_Alacalufe-Austral	alac1239	{}	-54.788017	language	-70.140381		Alacalufe-Austral	'Alacalufe-Austral [alac1239]-l-'	655	extinct		Kawesqar	#FF0000	-54.788017 -70.140381	FALSE
False	0	0	0		59	656	NOCODE_Alacalufe-Central	alac1240	{}	-53.435719	language	-71.04126		Alacalufe-Central	'Alacalufe-Central [alac1240]-l-'	2079	extinct		Kawesqar	#FF0000	-53.435719 -71.04126	FALSE
False	5	0	0		383	12469	mim	alac1244	{}	17.4944	language	-98.4674		Alacatlatzala Mixtec	('Atlamajalcingo del Monte [atla1271]','Cuatzoquitengo [cuat1239]','Plan de Guadalupe [plan1238]','Potoichan [poto1253]','Tototepec [toto1307]')'Alacatlatzala Mixtec [alac1244][mim]-l-'	15069	unknown/safe	Mixtecan	Otomanguean	#A9A9A9	17.4944 -98.4674	FALSE
False	4	0	0		10	10143	ala	alag1242	{}	8.34986	language	8.52085		Alago	('Agwatashi [agwa1246]','Assaikio [assa1267]','Doma [doma1261]','Keana [kean1238]')'Alago [alag1242][ala]-l-'	12804	unknown/safe		Atlantic-Congo	#A9A9A9	8.34986 8.52085	FALSE
False	0	0	0		376	7146	wbj	alag1248	{}	-4.64148	language	35.7231		Alagwa	'Alagwa [alag1248][wbj]-l-'	9532	unknown/safe	Southern Cushitic	Afro-Asiatic	#A9A9A9	-4.64148 35.7231	FALSE
False	0	0	0		143	1230	alk	alak1253	{}	15.5565	language	106.597		Alak	'Alak [alak1253][alk]-l-'	2413	unknown/safe		Austroasiatic	#A9A9A9	15.5565 106.597	FALSE
False	2	0	0		142	2378	amp	alam1246	{}	-4.66307	language	143.316		Alamblak	('Karawari [kara1494]','Kuvenmas [kuve1239]')'Alamblak [alam1246][amp]-l-'	4115	unknown/safe	Sepik Hill	Sepik	#A9A9A9	-4.66307 143.316	FALSE
False	0	0	0		21	3524	alj	alan1249	{}	13.0982	language	121.022		Alangan	'Alangan [alan1249][alj]-l-'	5324	unknown/safe		Austronesian	#A9A9A9	13.0982 121.022	FALSE
False	0	0	0		395	1750	apv	alap1235	{}	-12.329886	language	-59.996702		Alapmunte	'Alapmunte [alap1235][apv]-l-'	3281	extinct		Unattested	#FF0000	-12.329886 -59.996702	FALSE
False	0	0	0		172	1291	alh	alaw1244	{}	-15.5458	language	134.282		Alawa	'Alawa [alaw1244][alh]-l-'	2510	critically endangered		Mangarrayi-Maran	#FF6500	-15.5458 134.282	FALSE
False	5	0	0		21	10535	bhk	alba1269	{}	13.1989	language	123.49		Inland-Buhi-Daraga Bikol	('Buhi [buhi1243][ubl]','Daraga [dara1251]','Libon [libo1242][lbl]','Ligao [liga1237]','Oas [oass1237]')'Inland-Buhi-Daraga Bikol [alba1269][bhk]-l-'	13265	unknown/safe		Austronesian	#A9A9A9	13.1989 123.49	FALSE
False	2	0	0		383	12469	xta	alco1235	{}	17.3687	language	-98.3969		Alcozauca Mixtec	('Petlacalancingo Mixtec [petl1238]','Xochapa Mixtec [xoch1238]')'Alcozauca Mixtec [alco1235][xta]-l-'	15071	unknown/safe		Otomanguean	#A9A9A9	17.3687 -98.3969	FALSE
False	0	0	0		10	7594	alf	aleg1238	{}	6.59423	language	9.00394		Alege	'Alege [aleg1238][alf]-l-'	10174	unknown/safe		Atlantic-Congo	#A9A9A9	6.59423 9.00394	FALSE
False	0	0	0		50	5516	gah	alek1238	{}	-6.03901	language	145.387		Alekano	'Alekano [alek1238][gah]-l-'	8059	unknown/safe	Eastern Highlands	Nuclear Trans New Guinea	#A9A9A9	-6.03901 145.387	FALSE
False	3	0	0		227	227	ale	aleu1260	{}	52.1228	language	-174.29		Aleut	('Beringov [beri1255]','Eastern Aleut [east2533]','Western Aleut [west2616]')'Aleut [aleu1260][ale]-l-'	1397	critically endangered	Aleut	Eskimo-Aleut	#FF6500	52.1228 -174.29	FALSE
False	0	0	0		193	2631	asp	alge1235	{}	36.4762	language	3.5462		Algerian Sign Language	'Algerian Sign Language [alge1235][asp]-l-'	4378	unknown/safe		Sign Language	#A9A9A9	36.4762 3.5462	FALSE
False	3	0	0		376	12219	arq	alge1239	{}	35.4208	language	3.23033		Algerian Arabic	('Algiers [algi1247]','Constantine [cons1245]','Oran [oran1236]')'Algerian Arabic [alge1239][arq]-l-'	14789	unknown/safe		Afro-Asiatic	#A9A9A9	35.4208 3.23033	FALSE
False	0	0	0		376	12219	aao	alge1240	{}	20.8884	language	4.80626		Algerian Saharan Arabic	'Algerian Saharan Arabic [alge1240][aao]-l-'	14786	unknown/safe		Afro-Asiatic	#A9A9A9	20.8884 4.80626	FALSE
False	1	0	0		404	9718	alq	algo1255	{}	47.3876	language	-77.5258		Algonquin	('Miniwaki [mini1254]')'Algonquin [algo1255][alq]-l-'	12495	severely endangered	Algonquian	Algic	#FFCB00	47.3876 -77.5258	FALSE
False	0	0	0		10	15260	aiy	alii1240	{}	4.60014	language	18.0352		Ali	'Ali [alii1240][aiy]-l-'	17167	unknown/safe		Atlantic-Congo	#A9A9A9	4.60014 18.0352	FALSE
False	0	0	0		355	18520	all	alla1247	{}	11.0803	language	76.6593		Allar	'Allar [alla1247][all]-l-'	20012	unknown/safe		Dravidian	#A9A9A9	11.0803 76.6593	FALSE
False	0	0	0		10	5210	ald	alla1248	{}	5.22371	language	-4.42647		Alladian	'Alladian [alla1248][ald]-l-'	7631	unknown/safe	Kwa	Atlantic-Congo	#A9A9A9	5.22371 -4.42647	FALSE
False	0	0	0		132	132	NOCODE_Allentiac	alle1238	{}	-33.480938	language	-68.096924		Allentiac	'Allentiac [alle1238]-l-'	1200	extinct		Huarpean	#FF0000	-33.480938 -68.096924	FALSE
False	0	0	0		66	3861	aid	alng1239	{}	-12.5324	language	141.938		Alngith	'Alngith [alng1239][aid]-l-'	5816	extinct		Pama-Nyungan	#FF0000	-12.5324 141.938	FALSE
False	0	0	0		383	15018	zaq	aloa1235	{}	17.4137	language	-96.7438		Aloápam Zapotec	'Aloápam Zapotec [aloa1235][zaq]-l-'	16952	unknown/safe		Otomanguean	#A9A9A9	17.4137 -96.7438	FALSE
False	0	0	0		151	16466	ypo	alop1235	{}	23.59	language	101.933		Alo Phola	'Alo Phola [alop1235][ypo]-l-'	18457	vulnerable		Sino-Tibetan	#CBCB65	23.59 101.933	FALSE
False	0	0	0		21	17799	aol	alor1247	{}	-8.20382	language	124.264		Alorese	'Alorese [alor1247][aol]-l-'	19590	unknown/safe		Austronesian	#A9A9A9	-8.20382 124.264	FALSE
False	2	0	0				aes	alse1251	{}	44.408	language	-123.94		Alsea-Yaquina	('Alsea [alse1252]','Yaquina [yaqu1250]')'Alsea-Yaquina [alse1251][aes]-l-'	210	extinct	Alsea		#FF0000	44.408 -123.94	FALSE
False	0	0	0		151	16467	aub	alug1235	{}	23	language	103		Alugu	'Alugu [alug1235][aub]-l-'	18458	unknown/safe		Sino-Tibetan	#A9A9A9	23 103	FALSE
False	0	0	0		355	9375	xua	aluk1238	{}	11.3456	language	76.7995		Alu Kurumba	'Alu Kurumba [aluk1238][xua]-l-'	12095	unknown/safe		Dravidian	#A9A9A9	11.3456 76.7995	FALSE
False	2	0	0		10	10035	aab	alum1246	{}	9.01513	language	8.55956		Alumu-Tesu	('Alumu [alum1247]','Tesu [tesu1244]')'Alumu-Tesu [alum1246][aab]-l-'	12709	unknown/safe		Atlantic-Congo	#A9A9A9	9.01513 8.55956	FALSE
False	5	0	0		21	20916	alp	alun1238	{}	-3.11477	language	128.394		Alune	('Central East Alune [cent2077]','Central West Alune [cent2078]','Kairatu [kair1264]','North Coastal Alune [nort2866]','South Alune [sout2893]')'Alune [alun1238][alp]-l-'	21871	vulnerable	Central Malayo-Polynesian	Austronesian	#CBCB65	-3.11477 128.394	FALSE
False	0	0	0		151	16477	yna	aluo1235	{}	26	language	102		Aluo	'Aluo [aluo1235][yna]-l-'	18476	definitely endangered		Sino-Tibetan	#EDED21	26 102	FALSE
False	4	0	0		429	7416	alz	alur1250	{}	2.36213	language	31.0016		Alur	('Jokot [joko1238]','Jonam [jona1239]','Mambisa [mamb1303]','Wanyoro [wany1245]')'Alur [alur1250][alz]-l-'	9848	unknown/safe		Nilotic	#A9A9A9	2.36213 31.0016	FALSE
False	3	0	0		117	776	alr	alut1245	{}	60.3844	language	165.653		Alutor	('Alutorskij [alut1246]','Karaginskij [kara1472]','Palanskij [pala1340]')'Alutor [alut1245][alr]-l-'	2277	severely endangered	Northern Chukotko-Kamchatkan	Chukotko-Kamchatkan	#FFCB00	60.3844 165.653	FALSE
False	2	0	0		89	16362	avd	alvi1241	{}	35.0075	language	50.3794		Alviri-Vidari	('Alvir [alvi1242]','Vidar [vida1238]')'Alviri-Vidari [alvi1241][avd]-l-'	18372	definitely endangered		Indo-European	#EDED21	35.0075 50.3794	FALSE
False	0	0	0		66	3823	aly	alya1239	{}	-21.0427	language	136.835		Alyawarr	'Alyawarr [alya1239][aly]-l-'	5786	unknown/safe		Pama-Nyungan	#A9A9A9	-21.0427 136.835	FALSE
False	3	0	0		21	23041	amq	amah1245	{}	-3.32028	language	128.939		Amahai	('Makariki [maka1308]','Rutah [ruta1241]','Soahuku [soah1237]')'Amahai [amah1245][amq]-l-'	23147	critically endangered		Austronesian	#FF6500	-3.32028 128.939	FALSE
False	2	0	0		16	5318	amc	amah1246	{}	-10.2012	language	-72.3208		Amahuaca	('Inuvaken [inuv1238]','Viwivakeu [viwi1238]')'Amahuaca [amah1246][amc]-l-'	7767	severely endangered	Panoan	Pano-Tacanan	#FFCB00	-10.2012 -72.3208	FALSE
False	0	0	0		50	2032	ali	amai1246	{}	-5.18742	language	145.368		Amaimon	'Amaimon [amai1246][ali]-l-'	3679	unknown/safe		Nuclear Trans New Guinea	#A9A9A9	-5.18742 145.368	FALSE
False	0	0	0		142	142	aad	amal1242	{}	-4.04517	language	141.995		Amal	'Amal [amal1242][aad]-l-'	1218	unknown/safe		Sepik	#A9A9A9	-4.04517 141.995	FALSE
False	0	0	0		317	1555	amn	aman1265	{}	-3.51516	language	141.178		Amanab	'Amanab [aman1265][amn]-l-'	2927	unknown/safe	Border	Border	#A9A9A9	-3.51516 141.178	FALSE
False	0	0	0		298	9295	ama	aman1266	{}	-3.79772	language	-48.6613		Amanayé	'Amanayé [aman1266][ama]-l-'	12051	extinct		Tupian	#FF0000	-3.79772 -48.6613	FALSE
False	0	0	0		25	470	amm	amap1240	{}	-4.20192	language	141.658		Ama (Papua New Guinea)	'Ama {Papua New Guinea} [amap1240][amm]-l-'	1958	unknown/safe	Left May	Left May	#A9A9A9	-4.20192 141.658	FALSE
False	0	0	0		222	222	amg	amar1271	{}	-11.9876	language	132.878		Amurdak	'Amurdak [amar1271][amg]-l-'	1385	unknown/safe		Iwaidjan Proper	#A9A9A9	-11.9876 132.878	FALSE
False	0	0	0		21	19388	aie	amar1272	{}	-5.55778	language	148.68		Amara	'Amara [amar1272][aie]-l-'	20754	unknown/safe	Oceanic	Austronesian	#A9A9A9	-5.55778 148.68	FALSE
False	4	0	0		21	13142	aaz	amar1273	{}	-10.21751	language	123.96373		Amarasi	('Kotos [koto1251]','Ro'is [rois1241]','Ro'is Hero [rois1243]','Ro'is Tais Nonof [rois1242]')'Amarasi [amar1273][aaz]-l-'	15747	unknown/safe		Austronesian	#A9A9A9	-10.21751 123.96373	FALSE
False	1	0	0		112	112	amr	amar1274	{}	-12.4931	language	-70.5533		Amarakaeri	('Kisambaeri [kisa1267]')'Amarakaeri [amar1274][amr]-l-'	765	definitely endangered	Harakmbet	Harakmbut	#EDED21	-12.4931 -70.5533	FALSE
False	0	0	0		206	206	nyi	amas1236	{}	12.0993	language	29.4332		Ama (Sudan)	'Ama {Sudan} [amas1236][nyi]-l-'	1355	unknown/safe	Nyimang	Nyimang	#A9A9A9	12.0993 29.4332	FALSE
False	0	0	0		383	15019	zpo	amat1238	{}	16.2707	language	-96.4003		Amatlán Zapotec	'Amatlán Zapotec [amat1238][zpo]-l-'	16966	unknown/safe		Otomanguean	#A9A9A9	16.2707 -96.4003	FALSE
False	3	0	0		10	15459	rwm	amba1263	{}	0.81206	language	30.0014		Amba (Uganda)	('Kigumu [kigu1238]','Kyanzi [kyan1239]','Suwa [suwa1240]')'Amba {Uganda} [amba1263][rwm]-l-'	17368	vulnerable		Atlantic-Congo	#CBCB65	0.81206 30.0014	FALSE
False	3	0	0		21	19293	amk	amba1265	{}	-1.88126	language	136.526		Ambai	('Manawi [mana1293]','Nuclear Ambai [nucl1466]','Randawaya [rand1239]')'Ambai [amba1265][amk]-l-'	20619	unknown/safe	South Halmahera - West New Guinea	Austronesian	#A9A9A9	-1.88126 136.526	FALSE
False	0	0	0		21	15707	utp	amba1266	{}	-11.2958	language	166.498		Amba (Solomon Islands)	'Amba {Solomon Islands} [amba1266][utp]-l-'	17730	unknown/safe		Austronesian	#A9A9A9	-11.2958 166.498	FALSE
False	0	0	0		21	5335	abc	amba1267	{}	14.8156	language	120.283		Ambala Ayta	'Ambala Ayta [amba1267][abc]-l-'	7803	unknown/safe		Austronesian	#A9A9A9	14.8156 120.283	FALSE
False	2	0	0		264	264	aew	amba1269	{}	-4.23181	language	144.285		Ambakich	('Northern Ambakich [nort2931]','Southern Ambakich [sout2951]')'Ambakich [amba1269][aew]-l-'	1466	unknown/safe		Lower Sepik-Ramu	#A9A9A9	-4.23181 144.285	FALSE
False	0	0	0		10	7600	ael	ambe1247	{}	5.94043	language	9.62028		Ambele	'Ambele [ambe1247][ael]-l-'	10192	unknown/safe		Atlantic-Congo	#A9A9A9	5.94043 9.62028	FALSE
False	0	0	0		21	10394	amv	ambe1248	{}	-3.85919	language	127.196		Ambelau	'Ambelau [ambe1248][amv]-l-'	13129	unknown/safe		Austronesian	#A9A9A9	-3.85919 127.196	FALSE
False	0	0	0		21	17764	alm	ambl1237	{}	-15.5169	language	166.95		Amblong	'Amblong [ambl1237][alm]-l-'	19524	definitely endangered		Austronesian	#EDED21	-15.5169 166.95	FALSE
False	0	0	0		10	10171	amb	ambo1249	{}	7.07637	language	10.7798		Ambo	'Ambo [ambo1249][amb]-l-'	12844	unknown/safe		Atlantic-Congo	#A9A9A9	7.07637 10.7798	FALSE
False	1	0	0		21	16007	abs	ambo1250	{}	-3.71342	language	128.184		Ambonese Malay	('Dobo Malay [dobo1244]')'Ambonese Malay [ambo1250][abs]-l-'	18115	unknown/safe		Austronesian	#A9A9A9	-3.71342 128.184	FALSE
False	0	0	0		214	4453	qva	ambo1252	{}	-10.5138	language	-76.1135		Ambo-Pasco Quechua	'Ambo-Pasco Quechua [ambo1252][qva]-l-'	6652	severely endangered		Quechuan	#FFCB00	-10.5138 -76.1135	FALSE
False	0	0	0		353	3018	aag	ambr1239	{}	-3.61	language	142.56		Ambrak	'Ambrak [ambr1239][aag]-l-'	4739	unknown/safe		Nuclear Torricelli	#A9A9A9	-3.61 142.56	FALSE
False	4	0	0		423	3406	abt	ambu1247	{}	-3.7801	language	143.059		Ambulas	('Maprik [mapr1240]','Wingei [wing1239]','Wosera-Kamu [wose1244]','Wosera-Mamu [wose1243]')'Ambulas [ambu1247][abt]-l-'	5118	unknown/safe	Middle Sepik	Ndu	#A9A9A9	-3.7801 143.059	FALSE
False	0	0	0		46	46	amj	amda1238	{}	14.7528	language	20.8912		Amdang	'Amdang [amda1238][amj]-l-'	622	unknown/safe		Furan	#A9A9A9	14.7528 20.8912	FALSE
False	4	0	0		151	6424	adx	amdo1237	{}	34.5177	language	100.485		Amdo Tibetan	('Hbrogpa [hbro1238]','Rongba [rong1262]','Rongmahbrogpa [rong1261]','Rtahu [rtah1238]')'Amdo Tibetan [amdo1237][adx]-l-'	9057	unknown/safe	Bodic	Sino-Tibetan	#A9A9A9	34.5177 100.485	FALSE
False	3	0	0		50	5564	aey	amel1241	{}	-5.29126	language	145.687		Amele	('Haija [haij1242]','Huar [huar1254]','Jagahala [jaga1247]')'Amele [amel1241][aey]-l-'	8103	unknown/safe	Madang	Nuclear Trans New Guinea	#A9A9A9	-5.29126 145.687	FALSE
False	0	0	0		193	6537	ase	amer1248	{}	33.8117	language	-81.6121		American Sign Language	'American Sign Language [amer1248][ase]-l-'	9149	unknown/safe	Sign Languages	Sign Language	#A9A9A9	33.8117 -81.6121	FALSE
False	2	0	0		21	17883	ifa	amga1235	{}	16.9016	language	121.042		Amganad Ifugao	('Banaue Ifugao [bana1290]','Burnay Ifugao [burn1237]')'Amganad Ifugao [amga1235][ifa]-l-'	19656	unknown/safe		Austronesian	#A9A9A9	16.9016 121.042	FALSE
False	0	0	0		376	12229	amh	amha1245	{}	11.708182	language	39.543456		Amharic	'Amharic [amha1245][amh]-l-'	14815	unknown/safe	Semitic	Afro-Asiatic	#A9A9A9	11.708182 39.543456	FALSE
False	0	0	0		410	3375	amy	amii1238	{}	-13.5573	language	130.04		Ami	'Ami [amii1238][amy]-l-'	5079	unknown/safe		Western Daly	#A9A9A9	-13.5573 130.04	FALSE
False	5	0	0		21	3558	ami	amis1246	{}	23.0917	language	121.348		Amis	('Central Amis [cent2104]','Chengkung-Kwangshan [chen1258]','Northern Amis [nort2901]','Southern Amis [sout2929]','Tavalong-Vataan [tava1241]')'Amis [amis1246][ami]-l-'	5408	vulnerable		Austronesian	#CBCB65	23.0917 121.348	FALSE
False	0	0	0		353	3019	alx	amol1235	{}	-3.46843	language	142.532		Mol	'Mol [amol1235][alx]-l-'	4743	unknown/safe		Nuclear Torricelli	#A9A9A9	-3.46843 142.532	FALSE
False	0	0	0		383	9671	mbz	amol1236	{}	16.6521	language	-97.4518		Amoltepec Mixtec	'Amoltepec Mixtec [amol1236][mbz]-l-'	12463	unknown/safe		Otomanguean	#A9A9A9	16.6521 -97.4518	FALSE
False	0	0	0		10	12959	amo	amoo1242	{}	10.3229	language	8.65405		Amo	'Amo [amoo1242][amo]-l-'	15574	unknown/safe	Kainji	Atlantic-Congo	#A9A9A9	10.3229 8.65405	FALSE
False	0	0	0		30	481	aqd	ampa1238	{}	14.15	language	-3.55		Ampari Dogon	'Ampari Dogon [ampa1238][aqd]-l-'	1978	unknown/safe		Dogon	#A9A9A9	14.15 -3.55	FALSE
False	0	0	0		21	7852	apg	ampa1239	{}	-0.79259	language	116.349		Ampanang	'Ampanang [ampa1239][apg]-l-'	10562	unknown/safe		Austronesian	#A9A9A9	-0.79259 116.349	FALSE
False	0	0	0		151	4197	ajz	amri1238	{}	26.024	language	91.482		Amri Karbi	'Amri Karbi [amri1238][ajz]-l-'	6300	unknown/safe		Sino-Tibetan	#A9A9A9	26.024 91.482	FALSE
False	0	0	0		61	61	amt	amto1250	{}	-4.12165	language	141.339		Amto	'Amto [amto1250][amt]-l-'	660	unknown/safe		Amto-Musan	#A9A9A9	-4.12165 141.339	FALSE
False	0	0	0		298	6768	adw	amun1246	{}	-9.04023	language	-62.3064		Amundava	'Amundava [amun1246][adw]-l-'	9283	vulnerable		Tupian	#CBCB65	-9.04023 -62.3064	FALSE
False	3	0	0		10	10063	anw	anaa1238	{}	4.94832	language	7.57969		Anaang	('Abak [abak1242]','Ikot Ekpene [ikot1238]','Ukanafun [ukan1238]')'Anaang [anaa1238][anw]-l-'	12740	unknown/safe		Atlantic-Congo	#A9A9A9	4.94832 7.57969	FALSE
False	0	0	0		21	17862	akg	anak1240	{}	-9.63425	language	119.605		Anakalangu	'Anakalangu [anak1240][akg]-l-'	19626	unknown/safe		Austronesian	#A9A9A9	-9.63425 119.605	FALSE
False	2	0	0		151	4191	anm	anal1239	{}	24.0506	language	94.2806		Anal	('Laizo [laiz1241]','Mulsom [muls1238]')'Anal [anal1239][anm]-l-'	6280	vulnerable		Sino-Tibetan	#CBCB65	24.0506 94.2806	FALSE
False	0	0	0		50	8148	pda	anam1247	{}	-4.68869	language	145.051		Anam	'Anam [anam1247][pda]-l-'	10833	unknown/safe		Nuclear Trans New Guinea	#A9A9A9	-4.68869 145.051	FALSE
False	0	0	0		50	8148	imi	anam1248	{}	-4.63762	language	144.991		Anamuxra	'Anamuxra [anam1248][imi]-l-'	10832	unknown/safe	Madang	Nuclear Trans New Guinea	#A9A9A9	-4.63762 144.991	FALSE
False	0	0	0		298	12059	aan	anam1249	{}	-2.71119	language	-49.303		Anambé	'Anambé [anam1249][aan]-l-'	14703	critically endangered		Tupian	#FF6500	-2.71119 -49.303	FALSE
False	0	0	0		30	3596	dti	anat1248	{}	14.6669	language	-3.1168		Ana Tinga Dogon	'Ana Tinga Dogon [anat1248][dti]-l-'	5445	unknown/safe		Dogon	#A9A9A9	14.6669 -3.1168	FALSE
False	6	0	0		89	2205	grc	anci1242	{}	39.8155	language	21.9129		Ancient Greek	('Aeolic [aeol1234]','Arcadocypriot [arca1234]','Attic [atti1240]','Doric [dori1248]','Ionic [ioni1244]','Northwestern Ancient Greek [nort3269]')'Ancient Greek [anci1242][grc]-l-'	3937	extinct		Indo-European	#FF0000	39.8155 21.9129	FALSE
False	0	0	0		376	12221	hbo	anci1244	{}	31.7761	language	35.1725		Ancient Hebrew	'Ancient Hebrew [anci1244][hbo]-l-'	14802	extinct		Afro-Asiatic	#FF0000	31.7761 35.1725	FALSE
False	0	0	0		89	11185	hca	anda1280	{}	11.676	language	92.738		Andaman Creole Hindi	'Andaman Creole Hindi [anda1280][hca]-l-'	14077	unknown/safe		Indo-European	#A9A9A9	11.676 92.738	FALSE
False	0	0	0		419	419	afd	anda1283	{}	-4.96449	language	143.637		Andai	'Andai [anda1283][afd]-l-'	1834	unknown/safe		Arafundi	#A9A9A9	-4.96449 143.637	FALSE
False	0	0	0		264	2813	aod	anda1284	{}	-4.48734	language	144.767		Andarum	'Andarum [anda1284][aod]-l-'	4550	unknown/safe		Lower Sepik-Ramu	#A9A9A9	-4.48734 144.767	FALSE
False	0	0	0				ana	anda1286	{}	2.74999	language	-76		Andaqui	'Andaqui [anda1286][ana]-l-'	411	extinct			#FF0000	2.74999 -76	FALSE
False	1	0	0		66	3823	adg	ande1247	{}	-22.51278	language	137.3515		Andegerebinha	('Ayerrerenge [ayer1246][axe]')'Andegerebinha [ande1247][adg]-l-'	5785	unknown/safe		Pama-Nyungan	#A9A9A9	-22.51278 137.3515	FALSE
False	0	0	0		89	8454	anr	andh1242	{}	19.4734	language	77.7156		Andh	'Andh [andh1242][anr]-l-'	11150	unknown/safe		Indo-European	#A9A9A9	19.4734 77.7156	FALSE
False	5	0	0		371	4866	ani	andi1255	{}	42.8078	language	46.2919		Andi	('Gagatl [gaga1250]','Kvanxidatl [kvan1238]','Munin [muni1255]','Rikvani [rikv1238]','Zilo [zilo1238]')'Andi [andi1255][ani]-l-'	7074	definitely endangered	Avar-Andic-Tsezic	Nakh-Daghestanian	#EDED21	42.8078 46.2919	FALSE
False	0	0	0		21	10660	bzb	andi1257	{}	-0.88368	language	123.174		Andio	'Andio [andi1257][bzb]-l-'	13503	vulnerable		Austronesian	#CBCB65	-0.88368 123.174	FALSE
False	0	0	0		204	1354	NOCODE_Andoquero	ando1254	{}	-0.666992	language	-72.310867		Andoquero	'Andoquero [ando1254]-l-'	2667	extinct		Huitotoan	#FF0000	-0.666992 -72.310867	FALSE
False	0	0	0		62	2085	anb	ando1255	{}	-3.29664	language	-76.6056		Andoa	'Andoa [ando1255][anb]-l-'	3750	extinct		Zaparoan	#FF0000	-3.29664 -76.6056	FALSE
False	0	0	0				ano	ando1256	{}	-0.53751	language	-72.0869		Andoque	'Andoque [ando1256][ano]-l-'	76	severely endangered	Andoke		#FFCB00	-0.53751 -72.0869	FALSE
False	0	0	0		151	6361	NOCODE_Andro	andr1246	{}	24.754303	language	94.033796		Andro	'Andro [andr1246]-l-'	8926	extinct		Sino-Tibetan	#FF0000	24.754303 94.033796	FALSE
False	0	0	0		21	17657	anx	andr1248	{}	-2.05894	language	147.085		Andra-Hus	'Andra-Hus [andr1248][anx]-l-'	19321	unknown/safe		Austronesian	#A9A9A9	-2.05894 147.085	FALSE
False	0	0	0		21	13119	aty	anei1239	{}	-20.1864	language	169.825		Aneityum	'Aneityum [anei1239][aty]-l-'	15699	unknown/safe	Oceanic	Austronesian	#A9A9A9	-20.1864 169.825	FALSE
False	5	0	0		242	1422	aby	anem1248	{}	-9.75911	language	148.479		Aneme Wake	('Auwaka [auwa1241]','Buniabura [buni1247]','Doma {Papua New Guinea} [doma1263]','Jari [jari1243]','Mori [mori1270]')'Aneme Wake [anem1248][aby]-l-'	2748	unknown/safe		Yareban	#A9A9A9	-9.75911 148.479	FALSE
False	0	0	0				anz	anem1249	{}	-5.54836	language	148.993		Anem	'Anem [anem1249][anz]-l-'	367	unknown/safe	Anêm		#A9A9A9	-5.54836 148.993	FALSE
False	0	0	0		342	1589	myo	anfi1235	{}	8.568	language	34.647		Anfillo	'Anfillo [anfi1235][myo]-l-'	2976	critically endangered		Ta-Ne-Omotic	#FF6500	8.568 34.647	FALSE
False	10	0	0		151	11550	njm	anga1288	{}	25.6841	language	93.8668		Angami Naga	('Chakroma [chak1268]','Dzuna [dzun1241]','Kehena [kehe1240]','Khonoma [khon1248]','Kohima [kohi1249]','Mima [mima1238]','Mozome [mozo1238]','Nali {India} [nali1243]','Tengima [teng1262]','Tenyidie [teny1242]')'Angami Naga [anga1288][njm]-l-'	14386	vulnerable		Sino-Tibetan	#CBCB65	25.6841 93.8668	FALSE
False	0	0	0		323	323	agm	anga1290	{}	-7.15012	language	146.352		Angaataha	'Angaataha [anga1290][agm]-l-'	1565	unknown/safe	Angan	Angan	#A9A9A9	-7.15012 146.352	FALSE
False	3	0	0		50	8154	akh	anga1292	{}	-6.13347	language	143.478		Angal Heneng	('Augu [augu1243]','Nipa [nipa1239]','Waola [waol1238]')'Angal Heneng [anga1292][akh]-l-'	10846	unknown/safe		Nuclear Trans New Guinea	#A9A9A9	-6.13347 143.478	FALSE
False	0	0	0		50	8154	age	anga1293	{}	-6.0127	language	143.592		Angal	'Angal [anga1293][age]-l-'	10847	unknown/safe		Nuclear Trans New Guinea	#A9A9A9	-6.0127 143.592	FALSE
False	1	0	0		50	8154	aoe	anga1294	{}	-6.23296	language	143.583		Angal Enen	('Megi [megi1246]')'Angal Enen [anga1294][aoe]-l-'	10845	unknown/safe		Nuclear Trans New Guinea	#A9A9A9	-6.23296 143.583	FALSE
False	0	0	0		50	3633	yli	angg1239	{}	-4.0836	language	139.457		Angguruk Yali	'Angguruk Yali [angg1239][yli]-l-'	5470	unknown/safe		Nuclear Trans New Guinea	#A9A9A9	-4.0836 139.457	FALSE
False	0	0	0		89	8437	anp	angi1238	{}	26.0047	language	85.534		Angika	'Angika [angi1238][anp]-l-'	11107	vulnerable		Indo-European	#CBCB65	26.0047 85.534	FALSE
False	0	0	0		399	1803	rme	angl1239	{}	39	language	-78		Angloromani	'Angloromani [angl1239][rme]-l-'	3337	unknown/safe		Mixed Language	#A9A9A9	39 -78	FALSE
False	2	0	0		344	344	agg	ango1254	{}	-3.7167	language	141.199		Angor	('Nai {Angor} [naii1242]','Samanai [sama1304]')'Angor [ango1254][agg]-l-'	1591	unknown/safe	Senagi	Senagi	#A9A9A9	-3.7167 141.199	FALSE
False	0	0	0		264	1469	aog	ango1255	{}	-4.07758	language	144.028		Angoram	'Angoram [ango1255][aog]-l-'	2821	unknown/safe		Lower Sepik-Ramu	#A9A9A9	-4.07758 144.028	FALSE
False	0	0	0		107	6071	tnd	ango1257	{}	6.54198	language	-71.9212		Angosturas Tunebo	'Angosturas Tunebo [ango1257][tnd]-l-'	8536	definitely endangered		Chibchan	#EDED21	6.54198 -71.9212	FALSE
False	0	0	0		89	22623	aoa	ango1258	{}	0.11438	language	6.59486		Angolar	'Angolar [ango1258][aoa]-l-'	22885	unknown/safe	Creoles and Pidgins	Indo-European	#A9A9A9	0.11438 6.59486	FALSE
False	7	0	0		10	5202	blo	anii1245	{}	9.11127	language	1.60169		Anii	('Akpe [akpe1247]','Ananjubi [anan1238]','Balanka [bala1303]','Gikolodjya [giko1238]','Gilempla [gile1238]','Giseda [gise1241]','Gisème [gise1242]')'Anii [anii1245][blo]-l-'	7615	unknown/safe		Atlantic-Congo	#A9A9A9	9.11127 1.60169	FALSE
False	0	0	0		415	7362	hnh	anii1246	{}	-19.0966	language	22.9088		//Ani	'//Ani [anii1246][hnh]-l-'	9746	definitely endangered	Khoe-Kwadi	Khoe-Kwadi	#EDED21	-19.0966 22.9088	FALSE
False	0	0	0		10	5207	anf	anim1239	{}	7.60385	language	0.41962		Animere	'Animere [anim1239][anf]-l-'	7625	critically endangered		Atlantic-Congo	#FF6500	7.60385 0.41962	FALSE
False	0	0	0		354	3033	aoi	anin1240	{}	-13.99904	language	136.6415		Anindilyakwa	'Anindilyakwa [anin1240][aoi]-l-'	4755	vulnerable	Anindilyakwa	Gunwinyguan	#CBCB65	-13.99904 136.6415	FALSE
False	0	0	0		50	3687	boj	anja1238	{}	-5.45899	language	145.717		Anjam	'Anjam [anja1238][boj]-l-'	5586	unknown/safe		Nuclear Trans New Guinea	#A9A9A9	-5.45899 145.717	FALSE
False	6	0	0		323	2948	aak	anka1246	{}	-7.19444	language	145.754		Ankave	('Ankai [anka1247]','Bu'u [buuu1245]','Miyatnu [miya1257]','Sawuve [sawu1242]','Wiyagwa [wiya1238]','Wunavai [wuna1250]')'Ankave [anka1246][aak]-l-'	4665	unknown/safe		Angan	#A9A9A9	-7.19444 145.754	FALSE
False	2	0	0		66	3823	amx	anma1239	{}	-22.2853	language	133.286		Anmatyerre	('Eastern Anmatyerre [east2380]','Western Anmatyerre [west2442]')'Anmatyerre [anma1239][amx]-l-'	5784	unknown/safe		Pama-Nyungan	#A9A9A9	-22.2853 133.286	FALSE
False	0	0	0		264	4554	anj	anor1241	{}	-4.98449	language	144.801		Anor	'Anor [anor1241][anj]-l-'	6729	unknown/safe		Lower Sepik-Ramu	#A9A9A9	-4.98449 144.801	FALSE
False	0	0	0		256	1447	ans	anse1238	{}	6.24999	language	-76.05		Anserma	'Anserma [anse1238][ans]-l-'	2778	extinct		Chocoan	#FF0000	6.24999 -76.05	FALSE
False	0	0	0		21	19293	and	ansu1237	{}	-1.7543	language	135.866		Ansus	'Ansus [ansu1237][and]-l-'	20621	unknown/safe		Austronesian	#A9A9A9	-1.7543 135.866	FALSE
False	0	0	0		66	3798	ant	anta1253	{}	-27.1152	language	134.838		Antakarinya	'Antakarinya [anta1253][ant]-l-'	5728	definitely endangered		Pama-Nyungan	#EDED21	-27.1152 134.838	FALSE
False	0	0	0		21	17971	xmv	anta1255	{}	-13.2164	language	49.2402		Antankarana Malagasy	'Antankarana Malagasy [anta1255][xmv]-l-'	19690	unknown/safe		Austronesian	#A9A9A9	-13.2164 49.2402	FALSE
False	0	0	0		107	2257	NOCODE_Antioquian	anti1242	{}	7.199341	language	-75.342236		Antioquian	'Antioquian [anti1242]-l-'	4029	extinct		Chibchan	#FF0000	7.199341 -75.342236	FALSE
False	0	0	0		89	21945	aig	anti1245	{}	15.5531	language	-61.3156		Antigua and Barbuda Creole English	'Antigua and Barbuda Creole English [anti1245][aig]-l-'	22588	unknown/safe		Indo-European	#A9A9A9	15.5531 -61.3156	FALSE
False	4	0	0		429	5131	anu	anua1242	{}	7.57714	language	34.0267		Anuak	('Adoyo [adoy1238]','Coro [coro1246]','Lul [lull1238]','Opëno [open1238]')'Anuak [anua1242][anu]-l-'	7429	unknown/safe	Nilotic	Nilotic	#A9A9A9	7.57714 34.0267	FALSE
False	0	0	0		10	15588	cko	anuf1239	{}	10.2839	language	0.56021		Anufo	'Anufo [anuf1239][cko]-l-'	17595	unknown/safe	Kwa	Atlantic-Congo	#A9A9A9	10.2839 0.56021	FALSE
False	0	0	0		21	17675	aui	anuk1239	{}	-9.6692	language	149.822		Anuki	'Anuki [anuk1239][aui]-l-'	19357	definitely endangered		Austronesian	#EDED21	-9.6692 149.822	FALSE
False	0	0	0		21	19376	auq	anus1237	{}	-2.26271	language	139.502		Anus	'Anus [anus1237][auq]-l-'	20739	severely endangered		Austronesian	#FFCB00	-2.26271 139.502	FALSE
False	0	0	0		21	17662	aud	anut1237	{}	-11.61	language	169.85		Anuta	'Anuta [anut1237][aud]-l-'	19331	unknown/safe		Austronesian	#A9A9A9	-11.61 169.85	FALSE
False	0	0	0		151	1245	anl	anuu1241	{}	23.3394	language	98.5945		Anu	'Anu [anuu1241][anl]-l-'	2437	unknown/safe		Sino-Tibetan	#A9A9A9	23.3394 98.5945	FALSE
False	0	0	0		10	17596	mtb	anyi1244	{}	6.1627	language	-4.64232		Anyin Morofo	'Anyin Morofo [anyi1244][mtb]-l-'	19248	unknown/safe		Atlantic-Congo	#A9A9A9	6.1627 -4.64232	FALSE
False	11	0	0		10	17596	any	anyi1245	{}	6.31781	language	-3.30532		Anyin	('Abe {Anyin} [abee1243]','Alangua [alan1248]','Ano [anoo1238]','Aowin [aowi1238]','Barabo [bara1359]','Bini {Anyin} [bini1245]','Bona [bona1251]','Djuablin [djua1238]','Indenie [inde1240]','Moronou [moro1280]','Sanvi [sanv1241]')'Anyin [anyi1245][any]-l-'	19247	unknown/safe	Kwa	Atlantic-Congo	#A9A9A9	6.31781 -3.30532	FALSE
False	2	0	0		21	10581	pni	aohe1237	{}	0.87404	language	114.127		Aoheng-Seputan	('Aoheng [aohe1238]','Seputan [sepu1237]')'Aoheng-Seputan [aohe1237][pni]-l-'	13380	unknown/safe		Austronesian	#A9A9A9	0.87404 114.127	FALSE
False	5	0	0		151	6305	njo	aona1235	{}	26.3241	language	94.3824		Ao Naga	('Changki [chan1311]','Chongli [chon1286]','Dordar [dord1238]','Longla [long1376]','Mongsen Khari [mong1332]')'Ao Naga [aona1235][njo]-l-'	8820	unknown/safe	Kuki-Chin	Sino-Tibetan	#A9A9A9	26.3241 94.3824	FALSE
False	0	0	0		21	17768	aor	aore1237	{}	-15.5753	language	167.166		Aore	'Aore [aore1237][aor]-l-'	19545	extinct		Austronesian	#FF0000	-15.5753 167.166	FALSE
False	2	0	0		23	10680	aou	aoua1234	{}	26.8	language	105.85		A'ou	('Hongfeng Gelao [hong1242]','Nuclear A'ou [aouu1238]')'A'ou [aoua1234][aou]-l-'	13540	unknown/safe		Tai-Kadai	#A9A9A9	26.8 105.85	FALSE
False	0	0	0		21	22441	apo	apal1255	{}	-6.29002	language	149.96		Apalik	'Apalik [apal1255][apo]-l-'	22790	unknown/safe		Austronesian	#A9A9A9	-6.29002 149.96	FALSE
False	2	0	0		50	8152	ena	apal1256	{}	-5.1727	language	145.023		Apali	('Aci [acii1238]','Aki [akii1238]')'Apali [apal1256][ena]-l-'	10840	unknown/safe		Nuclear Trans New Guinea	#A9A9A9	-5.1727 145.023	FALSE
False	0	0	0		374	374	apy	apal1257	{}	1.49792	language	-54.7457		Apalaí	'Apalaí [apal1257][apy]-l-'	1707	vulnerable	Cariban	Cariban	#CBCB65	1.49792 -54.7457	FALSE
False	0	0	0		383	12461	mip	apas1235	{}	17.6143	language	-97.0657		Apasco-Apoala Mixtec	'Apasco-Apoala Mixtec [apas1235][mip]-l-'	15048	unknown/safe		Otomanguean	#A9A9A9	17.6143 -97.0657	FALSE
False	0	0	0		151	6392	apt	apat1240	{}	27.1933	language	93.7284		Apatani	'Apatani [apat1240][apt]-l-'	8973	vulnerable	Tani	Sino-Tibetan	#CBCB65	27.1933 93.7284	FALSE
False	0	0	0		374	3175	NOCODE_Apiaka-Tocantins	apia1247	{}	-6.5	language	-49.771729		Apiaka-Tocantins	'Apiaka-Tocantins [apia1247]-l-'	4873	extinct		Cariban	#FF0000	-6.5 -49.771729	FALSE
False	0	0	0		298	6768	api	apia1248	{}	-7.84711	language	-57.91		Apiaká	'Apiaká [apia1248][api]-l-'	9286	critically endangered		Tupian	#FF6500	-7.84711 -57.91	FALSE
False	0	0	0		58	2077	apn	apin1244	{}	-6.10774	language	-47.6315		Apinayé	'Apinayé [apin1244][apn]-l-'	3744	vulnerable	Ge-Kaingang	Nuclear-Macro-Je	#CBCB65	-6.10774 -47.6315	FALSE
False	5	0	0		21	15710	app	apma1240	{}	-15.8559	language	168.189		Apma	('Bwatnapni [bwat1239]','Loltong [lolt1237]','Melsisi [mels1237]','Suru-Bo [suru1260]','Suru-Marani [suru1259]')'Apma [apma1240][app]-l-'	17735	unknown/safe		Austronesian	#A9A9A9	-15.8559 168.189	FALSE
False	1	0	0				kbx	apma1241	{}	-4.35147	language	144.085		Ap Ma	('Kambaramba [kamb1306]')'Ap Ma [apma1241][kbx]-l-'	145	unknown/safe	Botin		#A9A9A9	-4.35147 144.085	FALSE
False	0	0	0		79	2175	NOCODE_Apolista	apol1242	{}	-14.83	language	-68.66		Apolista	'Apolista [apol1242]-l-'	3900	extinct		Arawakan	#FF0000	-14.83 -68.66	FALSE
False	0	0	0		10	3460	ahp	apro1235	{}	5.20273	language	-4.52192		Aproumu Aizi	'Aproumu Aizi [apro1235][ahp]-l-'	5220	unknown/safe	Kru	Atlantic-Congo	#A9A9A9	5.20273 -4.52192	FALSE
False	0	0	0		312	2904	apq	apuc1241	{}	12.241	language	92.7965		A-Pucikwar	'A-Pucikwar [apuc1241][apq]-l-'	4620	extinct	Great Andamanese	Great Andamanese	#FF0000	12.241 92.7965	FALSE
False	0	0	0		79	2171	apu	apur1254	{}	-8.21692	language	-66.7714		Apurinã	'Apurinã [apur1254][apu]-l-'	3896	definitely endangered	Purus	Arawakan	#EDED21	-8.21692 -66.7714	FALSE
False	3	0	0		21	17836	apx	aput1237	{}	-7.84732	language	126.496		Aputai	('Ilputih {Aputai} [ilpu1239]','Lurang [lura1237]','Welemur [wele1238]')'Aputai [aput1237][apx]-l-'	19618	critically endangered		Austronesian	#FF6500	-7.84732 126.496	FALSE
False	0	0	0		66	3789	ard	arab1267	{}	-28.705	language	135.449		Arabana	'Arabana [arab1267][ard]-l-'	5711	critically endangered		Pama-Nyungan	#FF6500	-28.705 135.449	FALSE
False	0	0	0		62	2085	arl	arab1268	{}	-1.96126	language	-75.0612		Arabela	'Arabela [arab1268][arl]-l-'	3749	severely endangered	Zaparoan	Zaparoan	#FFCB00	-1.96126 -75.0612	FALSE
False	4	0	0		89	16372	arg	arag1245	{}	42.4669	language	-0.00919		Aragonese	('Central Aragonese [cent1317]','Eastern Aragonese [east2273]','Southern Aragonese [sout2609]','Western Aragonese [west2340]')'Aragonese [arag1245][arg]-l-'	18403	definitely endangered		Indo-European	#EDED21	42.4669 -0.00919	FALSE
False	0	0	0		79	2176	NOCODE_Araicu	arai1239	{}	-3.104315	language	-67.2052		Araicu	'Araicu [arai1239]-l-'	3901	extinct		Arawakan	#FF0000	-3.104315 -67.2052	FALSE
False	0	0	0		21	17764	akr	arak1252	{}	-15.632997	language	166.952542		Araki	'Araki [arak1252][akr]-l-'	19526	critically endangered	Oceanic	Austronesian	#FF6500	-15.632997 166.952542	FALSE
False	3	0	0		21	10626	atq	aral1243	{}	-2.78397	language	119.319		Aralle-Tabulahan	('Aralle [aral1244]','Mambi [mamb1308]','Tabulahan [tabu1243]')'Aralle-Tabulahan [aral1243][atq]-l-'	13459	unknown/safe	South Sulawesi	Austronesian	#A9A9A9	-2.78397 119.319	FALSE
False	0	0	0		219	2680	stk	aram1253	{}	-8.29593	language	141.445		Arammba	'Arammba [aram1253][stk]-l-'	4459	unknown/safe		Morehead-Wasur	#A9A9A9	-8.29593 141.445	FALSE
False	1	0	0		179	1306	jbj	aran1237	{}	-2.08016	language	132.983		Arandai	('Dombano [domb1240]')'Arandai [aran1237][jbj]-l-'	2527	unknown/safe	South Bird's Head	South Bird's Head Family	#A9A9A9	-2.08016 132.983	FALSE
False	0	0	0		355	18520	aaf	aran1261	{}	11.35252	language	75.79538		Aranadan	'Aranadan [aran1261][aaf]-l-'	19998	unknown/safe		Dravidian	#A9A9A9	11.35252 75.79538	FALSE
False	0	0	0		16	5305	aro	arao1248	{}	-12.4242	language	-67.7293		Araona	'Araona [arao1248][aro]-l-'	7742	severely endangered	Tacanan	Pano-Tacanan	#FFCB00	-12.4242 -67.7293	FALSE
False	0	0	0		404	5073	arp	arap1274	{}	43.3879	language	-108.81		Arapaho	'Arapaho [arap1274][arp]-l-'	7343	unknown/safe	Algonquian	Algic	#A9A9A9	43.3879 -108.81	FALSE
False	0	0	0		314	1548	arj	arap1275	{}	0.13727	language	-67.7282		Arapaso	'Arapaso [arap1275][arj]-l-'	2906	extinct		Tucanoan	#FF0000	0.13727 -67.7282	FALSE
False	0	0	0		50	3690	awm	araw1272	{}	-5.52787	language	145.903		Arawum	'Arawum [araw1272][awm]-l-'	5600	severely endangered		Nuclear Trans New Guinea	#FFCB00	-5.52787 145.903	FALSE
False	0	0	0		298	6772	awt	araw1273	{}	-4.90246	language	-52.5001		Araweté	'Araweté [araw1273][awt]-l-'	9299	vulnerable		Tupian	#CBCB65	-4.90246 -52.5001	FALSE
False	0	0	0		79	2179	arw	araw1276	{}	5.64295	language	-56.9243		Lokono	'Lokono [araw1276][arw]-l-'	3908	critically endangered		Arawakan	#FF6500	5.64295 -56.9243	FALSE
False	0	0	0		16	5310	NOCODE_Arazaire	araz1236	{}	-13.25	language	-70.8		Arazaire	'Arazaire [araz1236]-l-'	7752	extinct		Pano-Tacanan	#FF0000	-13.25 -70.8	FALSE
False	4	0	0		89	2212	aae	arbe1236	{}	38.911	language	16.7164		Arbëreshë Albanian	('Calabrian Albanian [cala1254]','Campo Marino Albanian [camp1260]','Central Mountain Albanian [cent1955]','Sicilian Albanian [sici1247]')'Arbëreshë Albanian [arbe1236][aae]-l-'	3951	definitely endangered		Indo-European	#EDED21	38.911 16.7164	FALSE
False	0	0	0		376	14828	arv	arbo1245	{}	4.92183	language	36.7986		Arbore	'Arbore [arbo1245][arv]-l-'	16750	definitely endangered		Afro-Asiatic	#EDED21	4.92183 36.7986	FALSE
False	0	0	0		371	3165	aqc	arch1244	{}	42.3239	language	46.8267		Archi	'Archi [arch1244][aqc]-l-'	4862	definitely endangered	Lezgic	Nakh-Daghestanian	#EDED21	42.3239 46.8267	FALSE
False	2	0	0		21	19309	alu	area1240	{}	-9.20699	language	161.158		'Are'are	('Marau Sound [mara1398]','Nuclear 'Are'are [nucl1476]')''Are'are [area1240][alu]-l-'	20650	unknown/safe	Oceanic	Austronesian	#A9A9A9	-9.20699 161.158	FALSE
False	0	0	0		66	5823	aea	areb1238	{}	-16.63548	language	142.63107		Areba	'Areba [areb1238][aea]-l-'	8291	extinct		Pama-Nyungan	#FF0000	-16.63548 142.63107	FALSE
False	0	0	0		21	20731	mwc	aree1239	{}	-9.67147	language	149.999		Are	'Are [aree1239][mwc]-l-'	21710	unknown/safe		Austronesian	#A9A9A9	-9.67147 149.999	FALSE
False	0	0	0		143	4135	aem	arem1240	{}	17.7672	language	105.928		Arem	'Arem [arem1240][aem]-l-'	6180	severely endangered		Austroasiatic	#FFCB00	17.7672 105.928	FALSE
False	4	0	0		214	4444	qxu	areq1237	{}	-15.1806	language	-72.6333		Arequipa-La Unión Quechua	('Antabamba {Arequipa-La Union Quechua} [anta1257]','Cotahuasi [cota1243]','Highland Arequipa [high1279]','Northern Arequipa [nort2977]')'Arequipa-La Unión Quechua [areq1237][qxu]-l-'	6621	unknown/safe		Quechuan	#A9A9A9	-15.1806 -72.6333	FALSE
False	0	0	0		193	1332	aed	arge1236	{}	-34.797	language	-59.1798		Argentine Sign Language	'Argentine Sign Language [arge1236][aed]-l-'	2632	unknown/safe	Sign Languages	Sign Language	#A9A9A9	-34.797 -59.1798	FALSE
False	0	0	0		376	12229	agj	argo1244	{}	10.6596	language	39.756		Argobba	'Argobba [argo1244][agj]-l-'	14816	critically endangered		Afro-Asiatic	#FF6500	10.6596 39.756	FALSE
False	0	0	0		21	13096	agf	argu1237	{}	-2.645798	language	132.5556		Arguni	'Arguni [argu1237][agf]-l-'	15658	vulnerable		Austronesian	#CBCB65	-2.645798 132.5556	FALSE
False	0	0	0		21	17705	aqr	arha1237	{}	-21.2866	language	165.273		Arhâ	'Arhâ [arha1237][aqr]-l-'	19437	critically endangered		Austronesian	#FF6500	-21.2866 165.273	FALSE
False	0	0	0		21	17705	aok	arho1237	{}	-21.3183	language	165.161		Arhö	'Arhö [arho1237][aok]-l-'	19436	critically endangered		Austronesian	#FF6500	-21.3183 165.161	FALSE
False	0	0	0		107	8533	arh	arhu1242	{}	10.7018	language	-73.6363		Arhuaco	'Arhuaco [arhu1242][arh]-l-'	11311	vulnerable	Aruak	Chibchan	#CBCB65	10.7018 -73.6363	FALSE
False	0	0	0		21	20779	ylu	arib1240	{}	-6.65252	language	146.919		Aribwaung	'Aribwaung [arib1240][ylu]-l-'	21769	unknown/safe		Austronesian	#A9A9A9	-6.65252 146.919	FALSE
False	0	0	0		21	20779	laz	arib1241	{}	-6.72266	language	146.991		Aribwatsa	'Aribwatsa [arib1241][laz]-l-'	21767	extinct	Oceanic	Austronesian	#FF0000	-6.72266 146.991	FALSE
False	2	0	0		21	20731	aai	arif1239	{}	-9.15565	language	149.246		Arifama-Miniafia	('Arifama [arif1240]','Miniafia [mini1252]')'Arifama-Miniafia [arif1239][aai]-l-'	21712	unknown/safe		Austronesian	#A9A9A9	-9.15565 149.246	FALSE
False	11	0	0		10	3449	aqg	arig1246	{}	7.56324	language	5.89556		Arigidi	('Afa [afaa1238]','Aje [ajee1238]','Arigidí [arig1247]','Erúsú [erus1238]','Ese {Arigidi} [esee1246]','Igasi [igas1238]','Ojo [ojoo1238]','Oyin [oyin1238]','Udo [udoo1238]','Uro [uroo1240]','Òge [ogee1238]')'Arigidi [arig1246][aqg]-l-'	5189	unknown/safe		Atlantic-Congo	#A9A9A9	7.56324 5.89556	FALSE
False	0	0	0		352	3004	aac	arii1243	{}	-7.95526	language	142.4		Ari	'Ari [arii1243][aac]-l-'	4724	severely endangered		Suki-Gogodala	#FFCB00	-7.95526 142.4	FALSE
False	0	0	0		301	4605	ari	arik1262	{}	40.6473	language	-98.7158		Arikara	'Arikara [arik1262][ari]-l-'	6782	critically endangered	Caddoan	Caddoan	#FF6500	40.6473 -98.7158	FALSE
False	0	0	0		298	1529	ait	arik1264	{}	-8.924	language	-63.742		Arikem	'Arikem [arik1264][ait]-l-'	2887	extinct		Tupian	#FF0000	-8.924 -63.742	FALSE
False	0	0	0		58	649	ark	arik1265	{}	-12.4878	language	-62.7261		Arikapú	'Arikapú [arik1265][ark]-l-'	2067	critically endangered		Nuclear-Macro-Je	#FF6500	-12.4878 -62.7261	FALSE
False	0	0	0		147	2422	xrn	arin1243	{}	57	language	93		Arin	'Arin [arin1243][xrn]-l-'	4183	extinct		Yeniseian	#FF0000	57 93	FALSE
False	0	0	0		362	3057	luc	arin1244	{}	3.56143	language	31.3071		Aringa	'Aringa [arin1244][luc]-l-'	4800	unknown/safe		Central Sudanic	#A9A9A9	3.56143 31.3071	FALSE
False	0	0	0		66	2154	dth	arit1239	{}	-12.50839255	language	142.138748		Aritinngitigh	'Aritinngitigh [arit1239][dth]-l-'	3866	extinct		Pama-Nyungan	#FF0000	-12.50839255 142.138748	FALSE
False	1	0	0		363	1647	NOCODE_Arizona-Tewa	ariz1237	{}	35.836667	language	-110.381389		Arizona Tewa	('Hano {USA} [hano1247]')'Arizona Tewa [ariz1237]-l-'	3066	unknown/safe		Kiowa-Tanoan	#A9A9A9	35.836667 -110.381389	FALSE
False	0	0	0		395	1760	aoh	arma1244	{}	2.03332	language	-76		Arma	'Arma [arma1244][aoh]-l-'	3292	extinct		Unattested	#FF0000	2.03332 -76	FALSE
False	0	0	0		193	1332	aen	arme1259	{}	40.1002	language	44.4767		Armenian Sign Language	'Armenian Sign Language [arme1259][aen]-l-'	2638	unknown/safe		Sign Language	#A9A9A9	40.1002 44.4767	FALSE
False	2	0	0		89	14160	rup	arom1237	{}	42.0646	language	22.6464		Aromanian	('Armaneshti [arma1245]','Rramaneshti [rram1234]')'Aromanian [arom1237][rup]-l-'	16370	definitely endangered		Indo-European	#EDED21	42.0646 22.6464	FALSE
False	0	0	0		21	21781	aps	arop1242	{}	-3.06984	language	142.12		Arop-Sissano	'Arop-Sissano [arop1242][aps]-l-'	22468	unknown/safe		Austronesian	#A9A9A9	-3.06984 142.12	FALSE
False	2	0	0		21	19385	apr	arop1243	{}	-5.31671	language	147.103		Arop-Lokep	('Arop [arop1244]','Lokep [loke1237]')'Arop-Lokep [arop1243][apr]-l-'	20751	unknown/safe	Oceanic	Austronesian	#A9A9A9	-5.31671 147.103	FALSE
False	2	0	0		21	17648	aia	aros1241	{}	-10.2441	language	161.432		Arosi	('Nuclear Arosi [nucl1473]','Wango [wang1296]')'Arosi [aros1241][aia]-l-'	19312	unknown/safe	Oceanic	Austronesian	#A9A9A9	-10.2441 161.432	FALSE
False	0	0	0		21	3534	atz	arta1239	{}	16.4185	language	121.656		Arta	'Arta [arta1239][atz]-l-'	5346	unknown/safe		Austronesian	#A9A9A9	16.4185 121.656	FALSE
False	0	0	0		264	6736	msy	arua1260	{}	-4.28957	language	144.842		Aruamu	'Aruamu [arua1260][msy]-l-'	9256	unknown/safe	Mikarew	Lower Sepik-Ramu	#A9A9A9	-4.28957 144.842	FALSE
False	1	0	0		298	4603	arx	arua1261	{}	-12.1186	language	-62.4357		Aruá (Rondonia State)	('Aruáshi [arua1262]')'Aruá {Rondonia State} [arua1261][arx]-l-'	6780	severely endangered		Tupian	#FFCB00	-12.1186 -62.4357	FALSE
False	0	0	0		225	225	aru	arua1263	{}	-5.5	language	-67.98		Aruá (Amazonas State)	'Aruá {Amazonas State} [arua1263][aru]-l-'	1394	extinct		Arawan	#FF0000	-5.5 -67.98	FALSE
False	0	0	0		79	2177	NOCODE_Aruan	arua1264	{}	-0.608631	language	-50.123291		Aruan	'Aruan [arua1264]-l-'	3905	extinct		Arawakan	#FF0000	-0.608631 -50.123291	FALSE
False	0	0	0		353	4736	aur	arue1240	{}	-3.37841	language	142.715		Aruek	'Aruek [arue1240][aur]-l-'	6915	unknown/safe		Nuclear Torricelli	#A9A9A9	-3.37841 142.715	FALSE
False	0	0	0		353	3019	lsr	aruo1240	{}	-3.45782	language	142.478		Srenge	'Srenge [aruo1240][lsr]-l-'	4742	unknown/safe		Nuclear Torricelli	#A9A9A9	-3.45782 142.478	FALSE
False	0	0	0				atx	arut1244	{}	4.20057	language	-63.1202		Arutani	'Arutani [arut1244][atx]-l-'	392	critically endangered			#FF6500	4.20057 -63.1202	FALSE
False	3	0	0		89	2212	aat	arva1236	{}	38.283	language	23.3703		Arvanitika Albanian	('Northwestern Arvanitika [nort2603]','South Central Arvanitika [sout2608]','Thracean Arvanitika [thra1249]')'Arvanitika Albanian [arva1236][aat]-l-'	3949	severely endangered		Indo-European	#FFCB00	38.283 23.3703	FALSE
False	0	0	0		50	5493	mtv	asar1240	{}	-5.68263	language	146.508		Asaro'o	'Asaro'o [asar1240][mtv]-l-'	8021	unknown/safe		Nuclear Trans New Guinea	#A9A9A9	-5.68263 146.508	FALSE
False	0	0	0		50	5596	asd	asas1240	{}	-5.69345	language	145.549		Asas	'Asas [asas1240][asd]-l-'	8144	unknown/safe		Nuclear Trans New Guinea	#A9A9A9	-5.69345 145.549	FALSE
False	0	0	0		79	8313	cni	asha1243	{}	-11.9311	language	-73.9073		Asháninka	'Asháninka [asha1243][cni]-l-'	10971	vulnerable		Arawakan	#CBCB65	-11.9311 -73.9073	FALSE
False	0	0	0		10	10025	ahs	ashe1269	{}	9.36574	language	7.39443		Ashe	'Ashe [ashe1269][ahs]-l-'	12697	unknown/safe		Atlantic-Congo	#A9A9A9	9.36574 7.39443	FALSE
False	0	0	0		79	10970	prq	ashe1272	{}	-10.9777	language	-74.9153		Ashéninka Perené	'Ashéninka Perené [ashe1272][prq]-l-'	13707	vulnerable		Arawakan	#CBCB65	-10.9777 -74.9153	FALSE
False	0	0	0		79	10970	cjo	ashe1273	{}	-10.7583	language	-74.2014		Ashéninka Pajonal	'Ashéninka Pajonal [ashe1273][cjo]-l-'	13704	vulnerable	Pre-Andine Arawakan	Arawakan	#CBCB65	-10.7583 -74.2014	FALSE
False	3	0	0		89	3959	ask	ashk1246	{}	34.84277	language	70.37453		Ashkun	('Ashuruveri [ashu1242]','Gramsukraviri [gram1239]','Suruviri [suru1257]')'Ashkun [ashk1246][ask]-l-'	5977	definitely endangered		Indo-European	#EDED21	34.84277 70.37453	FALSE
False	7	0	0		151	14377	csh	asho1236	{}	21.393	language	93.5069		Asho Chin	('Chittagong [chit1280]','Khyang [khya1239]','Lemyo [lemy1239]','Minbu [minb1243]','Saingbaun [sain1244]','Sandoway [sand1269]','Thayetmyo [thay1247]')'Asho Chin [asho1236][csh]-l-'	16439	unknown/safe	Kuki-Chin	Sino-Tibetan	#A9A9A9	21.393 93.5069	FALSE
False	2	0	0		89	18373	atn	asht1244	{}	37.7469	language	48.6808		Ashtiani	('Nuclear Ashtiani [nucl1273]','Tafresh [tafr1239]')'Ashtiani [asht1244][atn]-l-'	19885	definitely endangered		Indo-European	#EDED21	37.7469 48.6808	FALSE
False	3	0	0		21	17786	asl	asil1242	{}	-3.67302	language	127.952		Asilulu	('Negeri Lima [nege1241]','Nuclear Asilulu [nucl1531]','Ureng [uren1238]')'Asilulu [asil1242][asl]-l-'	19573	unknown/safe		Austronesian	#A9A9A9	-3.67302 127.952	FALSE
False	0	0	0		64	667	eiv	asko1238	{}	-6.22539	language	155.307		Askopan	'Askopan [asko1238][eiv]-l-'	2092	unknown/safe		North Bougainville	#A9A9A9	-6.22539 155.307	FALSE
False	0	0	0		362	3049	asv	asoa1238	{}	2.26818	language	26.7198		Asoa	'Asoa [asoa1238][asv]-l-'	4779	unknown/safe		Central Sudanic	#A9A9A9	2.26818 26.7198	FALSE
False	4	0	0		89	13928	asm	assa1263	{}	26.0876	language	91.2932		Assamese	('Jharwa [jhar1240]','Mayang [maya1277]','Standard Assamese [stan1302]','Western Assamese [west2383]')'Assamese [assa1263][asm]-l-'	16192	unknown/safe	Indic	Indo-European	#A9A9A9	26.0876 91.2932	FALSE
False	6	0	0		271	2835	sjg	assa1269	{}	13.9592	language	22.6393		Assangori	('Erenga [eren1239]','Girga {Assangori} [girg1241]','Murasi [mura1270]','Sebunkik [sebu1242]','Sungor [sung1270]','Walad Dulla [wala1265]')'Assangori [assa1269][sjg]-l-'	4573	unknown/safe		Tamaic	#A9A9A9	13.9592 22.6393	FALSE
False	0	0	0		166	4292	asb	assi1247	{}	49.2923	language	-106.068		Assiniboine	'Assiniboine [assi1247][asb]-l-'	6437	critically endangered		Siouan	#FF6500	49.2923 -106.068	FALSE
False	0	0	0		21	13094	asz	asss1237	{}	-0.75267	language	131.728		As	'As [asss1237][asz]-l-'	15653	vulnerable		Austronesian	#CBCB65	-0.75267 131.728	FALSE
False	30	0	0		376	16732	aii	assy1241	{}	36.75	language	43		Assyrian Neo-Aramaic	(('Anhar [anha1242]','Mar Bishu [marb1243]','Nochiya [noch1239]','Tergawar [terg1238]')'Central Group [cent2218]','Iranian Koine [iran1268]',('Baz [bazz1238]','Dez [dezz1235]','Gavar {Aramaic} [gava1245]','Jilu [jilu1238]','Qudshanis [quds1238]','Salamas [sala1281]','Upper Barwari [uppe1449]','Van {Aramaic} [vann1248]')'Northern Group [nort3096]',('Aradhin [arad1238]','Benatha [bena1272]','Daudiya [daud1238]','Inishke [inis1238]','Tina [tina1254]')'Sapna cluster [sapn1238]',('Sipurghan [sipu1244]','Solduz [sold1238]','Urmi [urmi1250]')'Urmian group [urmi1249]',('Lewin [lewi1238]','Lower Barwari [lowe1435]','Tal {Aramaic} [tall1254]','Tkhuma [tkhu1242]')'Western Group [west2765]')'Assyrian Neo-Aramaic [assy1241][aii]-l-'	18594	definitely endangered	Semitic	Afro-Asiatic	#EDED21	36.75 43	FALSE
False	4	0	0		89	21067	ast	astu1245	{}	42.4181	language	-6.02227		Asturian	('Central Asturian [cent1956]','Eastern Asturian [east2272]','Leonese [leon1250]','Western Asturian [west2339]')'Asturian [astu1245][ast]-l-'	21955	definitely endangered	Romance	Indo-European	#EDED21	42.4181 -6.02227	FALSE
False	0	0	0		50	8161	psa	asue1235	{}	-5.98341	language	139.123		Asue Awyu	'Asue Awyu [asue1235][psa]-l-'	10868	unknown/safe	Awju-Dumut	Nuclear Trans New Guinea	#A9A9A9	-5.98341 139.123	FALSE
False	0	0	0		21	15707	aua	asum1237	{}	-11.2969	language	166.499		Asumboa	'Asumboa [asum1237][aua]-l-'	17729	severely endangered		Austronesian	#FFCB00	-11.2969 166.499	FALSE
False	0	0	0		10	7584	aum	asun1235	{}	10.0849	language	5.42081		Asu (Nigeria)	'Asu {Nigeria} [asun1235][aum]-l-'	10150	unknown/safe		Atlantic-Congo	#A9A9A9	10.0849 5.42081	FALSE
False	0	0	0		383	15017	zoo	asun1236	{}	16.8762	language	-96.8704		Asunción Mixtepec Zapotec	'Asunción Mixtepec Zapotec [asun1236][zoo]-l-'	16930	unknown/safe		Otomanguean	#A9A9A9	16.8762 -96.8704	FALSE
False	2	0	0		143	8690	asr	asur1254	{}	21.5721	language	83.4562		Asuri	('Brijia [brij1240]','Manjhi [manj1248]')'Asuri [asur1254][asr]-l-'	11428	definitely endangered		Austroasiatic	#EDED21	21.5721 83.4562	FALSE
False	0	0	0		10	17318	asa	asut1235	{}	-4.17978	language	37.8323		Asu (Tanzania)	'Asu {Tanzania} [asut1235][asa]-l-'	18903	unknown/safe	Bantoid	Atlantic-Congo	#A9A9A9	-4.17978 37.8323	FALSE
False	0	0	0		21	10540	atm	ataa1240	{}	9.715	language	122.9		Ata	'Ata [ataa1240][atm]-l-'	13269	unknown/safe		Austronesian	#A9A9A9	9.715 122.9	FALSE
False	0	0	0				NOCODE_Atacame	atac1235	{}	0.834931	language	-79.778137		Atacame	'Atacame [atac1235]-l-'	360	extinct			#FF0000	0.834931 -79.778137	FALSE
False	0	0	0				aqp	atak1252	{}	30.9121	language	-93.0827		Atakapa	'Atakapa [atak1252][aqp]-l-'	296	extinct	Atakapa		#FF0000	30.9121 -93.0827	FALSE
False	0	0	0		66	3859	amz	atam1239	{}	-11.0018	language	142.273		Atampaya	'Atampaya [atam1239][amz]-l-'	5811	extinct		Pama-Nyungan	#FF0000	-11.0018 142.273	FALSE
False	0	0	0		21	15822	atd	atam1240	{}	7.7789	language	125.499		Ata Manobo	'Ata Manobo [atam1240][atd]-l-'	17891	unknown/safe		Austronesian	#A9A9A9	7.7789 125.499	FALSE
False	0	0	0		383	12470	mib	atat1238	{}	17.07133	language	-97.67753		Atatláhuca Mixtec	'Atatláhuca Mixtec [atat1238][mib]-l-'	15074	unknown/safe	Mixtecan	Otomanguean	#A9A9A9	17.07133 -97.67753	FALSE
False	2	0	0		21	1934	tay	atay1247	{}	24.5209	language	121.388		Atayal	('Mayrinax [mayr1237]','Sqoleq [sqol1237]')'Atayal [atay1247][tay]-l-'	3550	vulnerable	Atayalic	Austronesian	#CBCB65	24.5209 121.388	FALSE
False	0	0	0		50	8150	ate	atem1241	{}	-5.08137	language	144.806		Mand	'Mand [atem1241][ate]-l-'	10835	definitely endangered		Nuclear Trans New Guinea	#EDED21	-5.08137 144.806	FALSE
False	0	0	0		151	11705	aph	athp1241	{}	26.8794	language	87.3296		Athpariya	'Athpariya [athp1241][aph]-l-'	14481	definitely endangered	Mahakiranti	Sino-Tibetan	#EDED21	26.8794 87.3296	FALSE
False	2	0	0		21	1933	atk	atii1237	{}	11.1539	language	122.512		Ati	('Barotac Viejo Nagpana [baro1255]','Malay {Ati} [mala1492]')'Ati [atii1237][atk]-l-'	3540	unknown/safe		Austronesian	#A9A9A9	11.1539 122.512	FALSE
False	0	0	0		404	3359	atj	atik1240	{}	47.9555	language	-73.7989		Atikamekw	'Atikamekw [atik1240][atj]-l-'	5078	vulnerable	Algonquian	Algic	#CBCB65	47.9555 -73.7989	FALSE
False	0	0	0		331	331	aqm	atoh1238	{}	-6.27123	language	138.666		Atohwaim	'Atohwaim [atoh1238][aqm]-l-'	1573	unknown/safe		Kayagaric	#A9A9A9	-6.27123 138.666	FALSE
False	0	0	0		151	4235	aot	aton1241	{}	25.346508	language	90.658722		Atong (India)	'Atong {India} [aton1241][aot]-l-'	6377	severely endangered		Sino-Tibetan	#FFCB00	25.346508 90.658722	FALSE
False	0	0	0		10	15530	ato	aton1242	{}	6.03539	language	9.72121		Atong	'Atong [aton1242][ato]-l-'	17502	unknown/safe		Atlantic-Congo	#A9A9A9	6.03539 9.72121	FALSE
False	0	0	0		79	3904	aox	ator1244	{}	2.481	language	-60.286		Atorada	'Atorada [ator1244][aox]-l-'	5854	unknown/safe		Arawakan	#A9A9A9	2.481 -60.286	FALSE
False	0	0	0		10	12958	cch	atsa1241	{}	9.95914	language	8.48301		Atsam	'Atsam [atsa1241][cch]-l-'	15573	unknown/safe		Atlantic-Congo	#A9A9A9	9.95914 8.48301	FALSE
False	0	0	0		16	5310	atc	atsa1242	{}	-14.1666	language	-69.5		Atsahuaca	'Atsahuaca [atsa1242][atc]-l-'	7751	extinct		Pano-Tacanan	#FF0000	-14.1666 -69.5	FALSE
False	0	0	0		45	45	atw	atsu1245	{}	40.4271	language	-120.661		Atsugewi	'Atsugewi [atsu1245][atw]-l-'	619	extinct	Palaihnihan	Palaihnihan	#FF0000	40.4271 -120.661	FALSE
False	3	0	0		10	3457	ati	atti1239	{}	5.9977	language	-3.8209		Attié	('Bodin [bodi1251]','Ketin [keti1245]','Naindin [nain1239]')'Attié [atti1239][ati]-l-'	5212	unknown/safe		Atlantic-Congo	#A9A9A9	5.9977 -3.8209	FALSE
False	0	0	0		383	7229	ocu	atzi1235	{}	19.3871	language	-99.9239		Atzingo Matlatzinca	'Atzingo Matlatzinca [atzi1235][ocu]-l-'	9680	severely endangered		Otomanguean	#FFCB00	19.3871 -99.9239	FALSE
False	0	0	0		21	17677	kud	auhe1237	{}	-10.0959	language	151.002		'Auhelawa	''Auhelawa [auhe1237][kud]-l-'	19370	unknown/safe		Austronesian	#A9A9A9	-10.0959 151.002	FALSE
False	2	0	0		21	19479	aul	aulu1238	{}	-16.3579	language	167.697		Aulua	('Boinelang [boin1237]','Onesso [ones1240]')'Aulua [aulu1238][aul]-l-'	20864	unknown/safe	Oceanic	Austronesian	#A9A9A9	-16.3579 167.697	FALSE
False	0	0	0		298	14702	aux	aura1243	{}	-4.137	language	-46.792		Aurê y Aurá	'Aurê y Aurá [aura1243][aux]-l-'	16610	extinct		Tupian	#FF0000	-4.137 -46.792	FALSE
False	0	0	0		10	18837	auh	aush1241	{}	-11.6295	language	29.0168		Aushi	'Aushi [aush1241][auh]-l-'	20146	unknown/safe		Atlantic-Congo	#A9A9A9	-11.6295 29.0168	FALSE
False	0	0	0		62	661	avs	aush1242	{}	-3.3196	language	-74.5411		Aushiri	'Aushiri [aush1242][avs]-l-'	2082	extinct		Zaparoan	#FF0000	-3.3196 -74.5411	FALSE
False	0	0	0		193	2631	asq	aust1252	{}	48.1197	language	16.225		Austrian Sign Language	'Austrian Sign Language [aust1252][asq]-l-'	4396	unknown/safe		Sign Language	#A9A9A9	48.1197 16.225	FALSE
False	0	0	0		193	1331	asw	aust1253	{}	-25	language	135		Australian Aborigines Sign Language	'Australian Aborigines Sign Language [aust1253][asw]-l-'	2602	extinct		Sign Language	#FF0000	-25 135	FALSE
False	0	0	0		193	6507	asf	aust1271	{}	-30	language	145		Australian Sign Language	'Australian Sign Language [aust1271][asf]-l-'	9135	unknown/safe	Sign Languages	Sign Language	#A9A9A9	-30 145	FALSE
False	4	0	0		21	22998	aut	aust1304	{}	-23.3843	language	-149.462		Austral	('Raivavae [raiv1237]','Rimatara [rima1237]','Rurutu [ruru1237]','Tubuai [tubu1240]')'Austral [aust1304][aut]-l-'	23124	definitely endangered		Austronesian	#EDED21	-23.3843 -149.462	FALSE
False	0	0	0		353	1618	avt	auuu1241	{}	-3.53277	language	142.105		Au	'Au [auuu1241][avt]-l-'	3023	unknown/safe	Wapei-Palei	Nuclear Torricelli	#A9A9A9	-3.53277 142.105	FALSE
False	0	0	0		317	1555	smf	auwe1239	{}	-3.33662	language	141.254		Auwe	'Auwe [auwe1239][smf]-l-'	2921	unknown/safe		Border	#A9A9A9	-3.33662 141.254	FALSE
False	0	0	0		50	2017	auu	auye1238	{}	-3.43705	language	136.096		Auye	'Auye [auye1238][auu]-l-'	3642	vulnerable		Nuclear Trans New Guinea	#CBCB65	-3.43705 136.096	FALSE
False	0	0	0		376	14970	auo	auyo1240	{}	9.85747	language	11.322		Auyokawa	'Auyokawa [auyo1240][auo]-l-'	16883	extinct		Afro-Asiatic	#FF0000	9.85747 11.322	FALSE
False	0	0	0		298	9302	avv	avac1239	{}	-13.6081	language	-48.1336		Avá-Canoeiro	'Avá-Canoeiro [avac1239][avv]-l-'	12060	critically endangered		Tupian	#FF6500	-13.6081 -48.1336	FALSE
False	14	0	0		371	3166	ava	avar1256	{}	41.7047	language	46.558		Avar	('Ancux [ancu1238]','Andalal-Gxdatl [anda1281]','Bacadin [baca1241]','Batlux [batl1238]','Hid [hidd1238]','Karax [kara1473]','Kaxib [kaxi1241]','Keleb [kele1253]','Kunzakh [kunz1243]','Salatav [sala1265]','Shulanin [shul1242]','Untib [unti1238]','Zakataly [zaka1239]','Zaqatala [zaqa1242]')'Avar [avar1256][ava]-l-'	4864	vulnerable	Avar-Andic-Tsezic	Nakh-Daghestanian	#CBCB65	41.7047 46.558	FALSE
False	0	0	0		10	5206	avn	avat1244	{}	6.8688	language	0.41314		Avatime	'Avatime [avat1244][avn]-l-'	7623	unknown/safe	Kwa	Atlantic-Congo	#A9A9A9	6.8688 0.41314	FALSE
False	1	0	0		21	22442	avb	avau1237	{}	-6.24342	language	150.427		Avau	('Gasmata [gasm1237]')'Avau [avau1237][avb]-l-'	22791	unknown/safe		Austronesian	#A9A9A9	-6.24342 150.427	FALSE
False	0	0	0		89	2223	ave	aves1237	{}	31.541	language	53.633		Avestan	'Avestan [aves1237][ave]-l-'	3972	extinct		Indo-European	#FF0000	31.541 53.633	FALSE
False	0	0	0		10	5210	avi	avik1243	{}	5.15838	language	-5.2529		Avikam	'Avikam [avik1243][avi]-l-'	7632	unknown/safe	Kwa	Atlantic-Congo	#A9A9A9	5.15838 -5.2529	FALSE
False	4	0	0		362	3057	avu	avok1242	{}	4.38639	language	29.9379		Avokaya	('Ajugu [ajug1238]','Avokaya Pur [avok1243]','Northern Ogambi [nort2812]','Ojila [ojil1238]')'Avokaya [avok1242][avu]-l-'	4802	unknown/safe	Moru-Ma'di	Central Sudanic	#A9A9A9	4.38639 29.9379	FALSE
False	3	0	0		66	8222	awk	awab1243	{}	-33.12847	language	151.43555		Awabakal	('Awabagal [awab1244]','Cameeragal [came1251]','Wonarua [wona1238]')'Awabakal [awab1243][awk]-l-'	10939	extinct		Pama-Nyungan	#FF0000	-33.12847 151.43555	FALSE
False	0	0	0		143	11448	vwa	awac1238	{}	22.75	language	99.4833		Ximeng-Menglian Awa	'Ximeng-Menglian Awa [awac1238][vwa]-l-'	14290	unknown/safe		Austroasiatic	#A9A9A9	22.75 99.4833	FALSE
False	0	0	0		289	1512	kwi	awac1239	{}	1.21652	language	-78.3401		Awa-Cuaiquer	'Awa-Cuaiquer [awac1239][kwi]-l-'	2868	critically endangered	Barbacoan	Barbacoan	#FF6500	1.21652 -78.3401	FALSE
False	5	0	0		89	8459	awa	awad1243	{}	27.5907	language	82.4663		Awadhi	('Gangapari [gang1265]','Mirzapuri [mirz1238]','Pardesi [pard1244]','Tharu [thar1280]','Uttari [utta1238]')'Awadhi [awad1243][awa]-l-'	11180	unknown/safe	Indic	Indo-European	#A9A9A9	27.5907 82.4663	FALSE
False	5	0	0		21	21742	bcu	awad1244	{}	-5.59896	language	146.355		Awad Bing	('Biliau [bili1252]','Galeg [gale1258]','Suit [suit1237]','Yamai [yama1259]','Yori [yori1237]')'Awad Bing [awad1244][bcu]-l-'	22450	unknown/safe		Austronesian	#A9A9A9	-5.59896 146.355	FALSE
False	0	0	0		10	15148	awo	awak1250	{}	9.86334	language	11.3291		Awak	'Awak [awak1250][awo]-l-'	17056	unknown/safe		Atlantic-Congo	#A9A9A9	9.86334 11.3291	FALSE
False	4	0	0		50	5521	awb	awap1236	{}	-6.65534	language	145.714		Awa (Papua New Guinea)	('Ilakia [ilak1239]','Northeast Awa [nort2919]','South Awa [sout2942]','Tauna [taun1251]')'Awa {Papua New Guinea} [awap1236][awb]-l-'	8067	unknown/safe	Eastern Highlands	Nuclear Trans New Guinea	#A9A9A9	-6.65534 145.714	FALSE
False	0	0	0		50	5482	awx	awar1248	{}	-6.16986	language	146.372		Awara	'Awara [awar1248][awx]-l-'	8008	unknown/safe		Nuclear Trans New Guinea	#A9A9A9	-6.16986 146.372	FALSE
False	2	0	0		264	6737	aya	awar1249	{}	-4.13554	language	144.836		Awar	('Nubia [nubi1252]','Nuclear Awar [nucl1639]')'Awar [awar1249][aya]-l-'	9258	unknown/safe		Lower Sepik-Ramu	#A9A9A9	-4.13554 144.836	FALSE
False	0	0	0		282	282	awh	awbo1238	{}	-5.05875	language	139.724		Awbono	'Awbono [awbo1238][awh]-l-'	1498	unknown/safe		Bayono-Awbono	#A9A9A9	-5.05875 139.724	FALSE
False	0	0	0		376	16759	bob	awee1242	{}	-1.40124	language	41.234		Aweer	'Aweer [awee1242][bob]-l-'	18615	definitely endangered		Afro-Asiatic	#EDED21	-1.40124 41.234	FALSE
False	0	0	0		85	717	awr	awer1241	{}	-2.71886	language	136.063		Awera	'Awera [awer1241][awr]-l-'	2182	vulnerable		Lakes Plain	#CBCB65	-2.71886 136.063	FALSE
False	0	0	0		298	2880	awe	awet1244	{}	-12.9336	language	-53.5852		Awetí	'Awetí [awet1244][awe]-l-'	4599	vulnerable		Tupian	#CBCB65	-12.9336 -53.5852	FALSE
False	0	0	0		10	17506	azo	awin1248	{}	5.88362	language	10.264		Awing	'Awing [awin1248][azo]-l-'	19176	unknown/safe		Atlantic-Congo	#A9A9A9	5.88362 10.264	FALSE
False	0	0	0		50	5520	auy	awiy1238	{}	-6.54079	language	145.76		Awiyaana	'Awiyaana [awiy1238][auy]-l-'	8065	unknown/safe	Eastern Highlands	Nuclear Trans New Guinea	#A9A9A9	-6.54079 145.76	FALSE
False	0	0	0		376	1712	auj	awji1241	{}	29.2341	language	21.1819		Awjilah-Foqaha	'Awjilah-Foqaha [awji1241][auj]-l-'	3198	severely endangered		Afro-Asiatic	#FFCB00	29.2341 21.1819	FALSE
False	0	0	0		376	3202	awn	awng1244	{}	10.9819	language	36.6916		Awngi	'Awngi [awng1244][awn]-l-'	4935	unknown/safe	Central Cushitic	Afro-Asiatic	#A9A9A9	10.9819 36.6916	FALSE
False	0	0	0		142	1213	kmn	awtu1239	{}	-3.53129	language	141.928		Awtuw	'Awtuw [awtu1239][kmn]-l-'	2370	unknown/safe	Ram	Sepik	#A9A9A9	-3.53129 141.928	FALSE
False	0	0	0		142	1219	aww	awun1245	{}	-3.79671	language	141.999		Auwon	'Auwon [awun1245][aww]-l-'	2379	unknown/safe		Sepik	#A9A9A9	-3.79671 141.999	FALSE
False	3	0	0		10	12972	afu	awut1241	{}	5.42441	language	-0.59545		Awutu	('Efutu [efut1241]','Nuclear Awutu [nucl1351]','Senya [seny1238]')'Awutu [awut1241][afu]-l-'	15591	unknown/safe		Atlantic-Congo	#A9A9A9	5.42441 -0.59545	FALSE
False	2	0	0		151	14429	yiu	awuu1235	{}	25.395	language	103.306		Awu = Lope	('Northern Awu Yi [nort2713]','Southern Awu Yi [sout2719]')'Awu = Lope [awuu1235][yiu]-l-'	16478	unknown/safe		Sino-Tibetan	#A9A9A9	25.395 103.306	FALSE
False	0	0	0		317	1556	auw	awyi1241	{}	-3.00564	language	140.604		Awyi	'Awyi [awyi1241][auw]-l-'	2929	vulnerable	Border	Border	#CBCB65	-3.00564 140.604	FALSE
False	0	0	0		21	21834	ahb	axam1237	{}	-16.4838	language	167.707		Axamb	'Axamb [axam1237][ahb]-l-'	22525	unknown/safe		Austronesian	#A9A9A9	-16.4838 167.707	FALSE
False	0	0	0		151	16473	yix	axiy1235	{}	24.6009	language	103.713		Axi Yi	'Axi Yi [axiy1235][yix]-l-'	18470	unknown/safe		Sino-Tibetan	#A9A9A9	24.6009 103.713	FALSE
False	0	0	0		66	5828	ayd	ayab1239	{}	-14.6652	language	142.893		Yintyinka-Ayabadhu	'Yintyinka-Ayabadhu [ayab1239][ayd]-l-'	8299	extinct		Pama-Nyungan	#FF0000	-14.6652 142.893	FALSE
False	2	0	0		214	4444	quy	ayac1239	{}	-13.84714	language	-74.32246		Ayacucho Quechua	('Andahuaylas [anda1285]','Huancavelica [huan1249]')'Ayacucho Quechua [ayac1239][quy]-l-'	6622	definitely endangered	Quechuan	Quechuan	#EDED21	-13.84714 -74.32246	FALSE
False	0	0	0		383	12460	vmy	ayau1235	{}	18.0993	language	-96.5952		Ayautla Mazatec	'Ayautla Mazatec [ayau1235][vmy]-l-'	15045	vulnerable		Otomanguean	#CBCB65	18.0993 -96.5952	FALSE
False	0	0	0		10	5188	aye	ayer1245	{}	7.52206	language	6.01979		Ayere	'Ayere [ayer1245][aye]-l-'	7562	unknown/safe		Atlantic-Congo	#A9A9A9	7.52206 6.01979	FALSE
False	0	0	0		142	4105	ayq	ayip1235	{}	-3.95946	language	142.407		Ayi (Papua New Guinea)	'Ayi {Papua New Guinea} [ayip1235][ayq]-l-'	6137	unknown/safe		Sepik	#A9A9A9	-3.95946 142.407	FALSE
False	0	0	0		21	13122	nfl	ayiw1239	{}	-10.282595	language	166.328715		Ayiwo	'Ayiwo [ayiw1239][nfl]-l-'	15702	unknown/safe	Oceanic	Austronesian	#A9A9A9	-10.282595 166.328715	FALSE
False	0	0	0		151	21118	yyz	ayiz1244	{}	25	language	103.7		Ayizi	'Ayizi [ayiz1244][yyz]-l-'	22029	critically endangered		Sino-Tibetan	#FF6500	25 103.7	FALSE
False	4	0	0		10	5214	ayb	ayiz1245	{}	6.62654	language	2.20552		Ayizo Gbe	('Ayizo-Kobe [ayiz1248]','Ayizo-Seto [ayiz1246]','Ayizo-Tori [ayiz1247]','Kadagbe [kada1283]')'Ayizo Gbe [ayiz1245][ayb]-l-'	7656	unknown/safe		Atlantic-Congo	#A9A9A9	6.62654 2.20552	FALSE
False	0	0	0		383	15017	zaf	ayoq1235	{}	16.6633	language	-96.8575		Ayoquesco Zapotec	'Ayoquesco Zapotec [ayoq1235][zaf]-l-'	16942	unknown/safe		Otomanguean	#A9A9A9	16.6633 -96.8575	FALSE
False	1	0	0		129	1193	ayo	ayor1240	{}	-19.220055	language	-60.217495		Ayoreo	('Tsiracua [tsir1238]')'Ayoreo [ayor1240][ayo]-l-'	2351	definitely endangered	Zamucoan	Zamucoan	#EDED21	-19.220055 -60.217495	FALSE
False	0	0	0		383	12464	miy	ayut1236	{}	16.8833	language	-98.9916		Ayutla Mixtec	'Ayutla Mixtec [ayut1236][miy]-l-'	15055	unknown/safe	Mixtecan	Otomanguean	#A9A9A9	16.8833 -98.9916	FALSE
False	0	0	0		10	7507	ayu	ayuu1242	{}	9.2634	language	8.60225		Ayu	'Ayu [ayuu1242][ayu]-l-'	10030	unknown/safe		Atlantic-Congo	#A9A9A9	9.2634 8.60225	FALSE
False	0	0	0		151	11618	aza	azha1235	{}	23.9	language	104.15		Azha	'Azha [azha1235][aza]-l-'	14426	unknown/safe		Sino-Tibetan	#A9A9A9	23.9 104.15	FALSE
False	0	0	0		151	16473	yiz	azhe1235	{}	24.405	language	103.441		Azhe	'Azhe [azhe1235][yiz]-l-'	18469	unknown/safe		Sino-Tibetan	#A9A9A9	24.405 103.441	FALSE
False	0	0	0		383	7228	tpc	azoy1236	{}	16.7584	language	-98.5241		Azoyú Me'phaa	'Azoyú Me'phaa [azoy1236][tpc]-l-'	9678	unknown/safe		Otomanguean	#A9A9A9	16.7584 -98.5241	FALSE
False	2	0	0		10	7523	bvj	baan1241	{}	4.66709	language	7.30065		Baan	('Ka-Ban [kaba1279]','Kesari [kesa1243]')'Baan [baan1241][bvj]-l-'	10055	unknown/safe		Atlantic-Congo	#A9A9A9	4.66709 7.30065	FALSE
False	0	0	0		10	12954	bqx	baan1242	{}	10.8083	language	5.7261		Baangi	'Baangi [baan1242][bqx]-l-'	15569	unknown/safe		Atlantic-Congo	#A9A9A9	10.8083 5.7261	FALSE
False	0	0	0		10	7439	bba	baat1238	{}	9.63186	language	2.99607		Baatonum	'Baatonum [baat1238][bba]-l-'	9879	unknown/safe	Gur	Atlantic-Congo	#A9A9A9	9.63186 2.99607	FALSE
False	0	0	0		10	10016	NOCODE_Baazem	baaz1234	{}	6.80235	language	9.97124		Baazem	'Baazem [baaz1234]-l-'	12677	unknown/safe		Atlantic-Congo	#A9A9A9	6.80235 9.97124	FALSE
False	0	0	0		10	19126	bbm	baba1263	{}	1.79475	language	23.5851		Babango	'Babango [baba1263][bbm]-l-'	20455	unknown/safe		Atlantic-Congo	#A9A9A9	1.79475 23.5851	FALSE
False	0	0	0		10	19169	bbw	baba1264	{}	6.11222	language	10.5216		Baba	'Baba [baba1264][bbw]-l-'	20504	unknown/safe		Atlantic-Congo	#A9A9A9	6.11222 10.5216	FALSE
False	0	0	0		10	15535	bbk	baba1266	{}	5.97863	language	10.2869		Babanki	'Babanki [baba1266][bbk]-l-'	17531	unknown/safe		Atlantic-Congo	#A9A9A9	5.97863 10.2869	FALSE
False	0	0	0		21	10620	mbf	baba1267	{}	1.75414	language	103.076		Baba Malay	'Baba Malay [baba1267][mbf]-l-'	13439	unknown/safe		Austronesian	#A9A9A9	1.75414 103.076	FALSE
False	6	0	0		21	22486	baa	baba1268	{}	-7.22281	language	157.149		Babatana	('Avasö [avas1237]','Katazi [kata1267]','Kuboro [kubo1243]','Lömaumbi [loma1262]','Nuclear Babatana [nucl1494]','Sengan [seng1280]')'Babatana [baba1268][baa]-l-'	22817	unknown/safe		Austronesian	#A9A9A9	-7.22281 157.149	FALSE
False	0	0	0		376	16658	bbz	baba1273	{}	12.7617	language	16.6925		Babalia Creole Arabic	'Babalia Creole Arabic [baba1273][bbz]-l-'	18569	unknown/safe		Afro-Asiatic	#A9A9A9	12.7617 16.6925	FALSE
False	0	0	0		196	4403	bcr	babi1235	{}	55.0997	language	-126.41		Babine	'Babine [babi1235][bcr]-l-'	6565	severely endangered		Athapaskan-Eyak-Tlingit	#FFCB00	55.0997 -126.41	FALSE
False	2	0	0		21	3554	bzg	babu1240	{}	24.0017	language	120.585		Babuza	('Poavosa [poav1237]','Taokas [taok1237]')'Babuza [babu1240][bzg]-l-'	5398	extinct		Austronesian	#FF0000	24.0017 120.585	FALSE
False	0	0	0		21	15990	btj	baca1243	{}	-0.62275	language	127.49		Bacanese Malay	'Bacanese Malay [baca1243][btj]-l-'	18104	unknown/safe		Austronesian	#A9A9A9	-0.62275 127.49	FALSE
False	3	0	0		376	9572	bcy	baca1246	{}	9.53072	language	12.0416		Bacama	('Mulyen [muly1238]','Opalo [opal1238]','Wa-Duku [wadu1238]')'Bacama [baca1246][bcy]-l-'	12327	unknown/safe		Afro-Asiatic	#A9A9A9	9.53072 12.0416	FALSE
False	0	0	0		355	6950	bfq	bada1257	{}	11.3094	language	76.5974		Badaga	'Badaga [bada1257][bfq]-l-'	9374	definitely endangered	Southern Dravidian	Dravidian	#EDED21	11.3094 76.5974	FALSE
False	2	0	0		10	12880	bau	bada1258	{}	9.62456	language	9.95		Bada (Nigeria)	('Galamkya [gala1266]','Mbat {Nigeria} [mbat1251]')'Bada {Nigeria} [bada1258][bau]-l-'	15407	unknown/safe		Atlantic-Congo	#A9A9A9	9.62456 9.95	FALSE
False	2	0	0		21	13518	bhz	bada1261	{}	-1.80249	language	120.319		Bada (Indonesia)	('Ako {Indonesia} [akoo1250]','Bada [bada1262]')'Bada {Indonesia} [bada1261][bhz]-l-'	16059	unknown/safe		Austronesian	#A9A9A9	-1.80249 120.319	FALSE
False	0	0	0		395	1776	bdz	bade1240	{}	35.2655	language	72.6823		Badeshi	'Badeshi [bade1240][bdz]-l-'	3314	extinct		Unattested	#FF0000	35.2655 72.6823	FALSE
False	4	0	0		376	12385	bde	bade1248	{}	12.789	language	10.6557		Bade	('Gashua Bade [gash1250]','Shirawa [shir1268]','Southern Bade [sout3053]','Western Bade [west2711]')'Bade [bade1248][bde]-l-'	14971	vulnerable	West Chadic	Afro-Asiatic	#CBCB65	12.789 10.6557	FALSE
False	0	0	0		66	3831	bia	badi1246	{}	-29.0647	language	117.246		Badimaya	'Badimaya [badi1246][bia]-l-'	5801	unknown/safe		Pama-Nyungan	#A9A9A9	-29.0647 117.246	FALSE
False	0	0	0		219	4470	khd	badi1247	{}	-8.85301	language	140.753		Bädi Kanum	'Bädi Kanum [badi1247][khd]-l-'	6681	unknown/safe	Morehead and Upper Maro Rivers	Morehead-Wasur	#A9A9A9	-8.85301 140.753	FALSE
False	0	0	0		21	5373	bac	badu1237	{}	-6.35359	language	106.177		Badui	'Badui [badu1237][bac]-l-'	7884	unknown/safe		Austronesian	#A9A9A9	-6.35359 106.177	FALSE
False	0	0	0		10	5234	pbp	bady1239	{}	12.6425	language	-13.4759		Jaad-Badyara	'Jaad-Badyara [bady1239][pbp]-l-'	7706	severely endangered		Atlantic-Congo	#FFCB00	12.6425 -13.4759	FALSE
False	0	0	0		21	19308	bvd	baeg1237	{}	-8.49014	language	160.771		Baeggu	'Baeggu [baeg1237][bvd]-l-'	20639	unknown/safe		Austronesian	#A9A9A9	-8.49014 160.771	FALSE
False	0	0	0		21	19308	bvc	bael1237	{}	-8.41627	language	160.721		Baelelea	'Baelelea [bael1237][bvc]-l-'	20645	unknown/safe		Austronesian	#A9A9A9	-8.41627 160.721	FALSE
False	3	0	0		21	15715	btr	baet1237	{}	-15.2574	language	168.159		Baetora	('Narovorovo [naro1250]','Nasawa [nasa1241]','Talise {Vanuatu} [tali1260]')'Baetora [baet1237][btr]-l-'	17752	unknown/safe		Austronesian	#A9A9A9	-15.2574 168.159	FALSE
False	2	0	0		10	17390	bwt	bafa1247	{}	4.53307	language	9.522		Bafaw-Balong	('Bafaw [bafa1248]','Balong [balo1263]')'Bafaw-Balong [bafa1247][bwt]-l-'	19002	unknown/safe		Atlantic-Congo	#A9A9A9	4.53307 9.522	FALSE
False	0	0	0		10	19170	bfj	bafa1249	{}	5.84612	language	10.4518		Bafanji	'Bafanji [bafa1249][bfj]-l-'	20508	unknown/safe		Atlantic-Congo	#A9A9A9	5.84612 10.4518	FALSE
False	2	0	0		10	17392	ksf	bafi1243	{}	4.72603	language	11.0982		Bafia	('Bape [bape1238]','Kpa [kpaa1242]')'Bafia [bafi1243][ksf]-l-'	19005	unknown/safe	Bantoid	Atlantic-Congo	#A9A9A9	4.72603 11.0982	FALSE
False	0	0	0		10	15504	NOCODE_Bafoto	bafo1235	{}	1.19	language	19.76		Bafoto	'Bafoto [bafo1235]-l-'	17467	unknown/safe		Atlantic-Congo	#A9A9A9	1.19 19.76	FALSE
False	2	0	0		10	19175	bfd	bafu1246	{}	6.14153	language	10.1194		Bafut	('Bufe [bufe1238]','Nuclear Bafut [nucl1413]')'Bafut [bafu1246][bfd]-l-'	20525	unknown/safe	Bantoid	Atlantic-Congo	#A9A9A9	6.14153 10.1194	FALSE
False	0	0	0		10	1900	bmd	baga1270	{}	10.76747	language	-14.60521		Baga Manduri	'Baga Manduri [baga1270][bmd]-l-'	3480	unknown/safe		Atlantic-Congo	#A9A9A9	10.76747 -14.60521	FALSE
False	1	0	0		10	1900	bsp	baga1272	{}	10.4793	language	-14.4756		Baga Sitemu	('Marara [mara1388]')'Baga Sitemu [baga1272][bsp]-l-'	3482	severely endangered	Mel	Atlantic-Congo	#FFCB00	10.4793 -14.4756	FALSE
False	0	0	0		10	1900	bgo	baga1273	{}	10.1286	language	-13.947		Baga Koga	'Baga Koga [baga1273][bgo]-l-'	3479	unknown/safe		Atlantic-Congo	#A9A9A9	10.1286 -13.947	FALSE
False	0	0	0		10	3474	bcg	baga1275	{}	10.5271	language	-14.6111		Baga Mboteni-Binari	'Baga Mboteni-Binari [baga1275][bcg]-l-'	5239	definitely endangered		Atlantic-Congo	#EDED21	10.5271 -14.6111	FALSE
False	6	0	0		89	8459	bfy	bagh1251	{}	24.6837	language	87.4994		Bagheli	('Banapari [bana1282]','Gahore [gaho1238]','Godwani [godw1242]','Ojhi [ojhi1238]','Sonpari [sonp1238]','Tirhari [tirh1246]')'Bagheli [bagh1251][bfy]-l-'	11177	unknown/safe		Indo-European	#A9A9A9	24.6837 87.4994	FALSE
False	0	0	0		10	7695	fui	bagi1244	{}	8.81656	language	18.3467		Bagirmi Fulfulde	'Bagirmi Fulfulde [bagi1244][fui]-l-'	10332	unknown/safe		Atlantic-Congo	#A9A9A9	8.81656 18.3467	FALSE
False	4	0	0		362	9427	bmi	bagi1246	{}	11.52392	language	14.769495		Bagirmi	('Bangri [bang1360]','Dam [damm1238]','Gol [goll1238]','Kibar [kiba1246]')'Bagirmi [bagi1246][bmi]-l-'	12140	unknown/safe	Bongo-Bagirmi	Central Sudanic	#A9A9A9	11.52392 14.769495	FALSE
False	2	0	0		10	18686	bqg	bago1245	{}	8.52697	language	1.41214		Bago-Kusuntu	('Bago [bago1246]','Kusuntu [kusu1251]')'Bago-Kusuntu [bago1245][bqg]-l-'	20100	unknown/safe		Atlantic-Congo	#A9A9A9	8.52697 1.41214	FALSE
False	0	0	0		89	14023	bgq	bagr1243	{}	28.6036	language	71.453		Bagri	'Bagri [bagr1243][bgq]-l-'	16254	unknown/safe	Indic	Indo-European	#A9A9A9	28.6036 71.453	FALSE
False	0	0	0		159	2494	bqb	bagu1251	{}	-1.98844	language	137.914		Bagusa	'Bagusa [bagu1251][bqb]-l-'	4288	unknown/safe		Greater Kwerba	#A9A9A9	-1.98844 137.914	FALSE
False	0	0	0		50	5565	bpi	bagu1252	{}	-5.07778	language	145.632		Bagupi	'Bagupi [bagu1252][bpi]-l-'	8122	definitely endangered		Nuclear Trans New Guinea	#EDED21	-5.07778 145.632	FALSE
False	1	0	0		371	7069	kva	bagv1239	{}	42.3966	language	46.1041		Bagvalal	('Tlisi [tlis1238]')'Bagvalal [bagv1239][kva]-l-'	9468	definitely endangered	Avar-Andic-Tsezic	Nakh-Daghestanian	#EDED21	42.3966 46.1041	FALSE
False	0	0	0		21	10579	bhv	baha1257	{}	0.30801	language	115.332		Bahau	'Bahau [baha1257][bhv]-l-'	13374	unknown/safe		Austronesian	#A9A9A9	0.30801 115.332	FALSE
False	0	0	0		137	1209	bdw	baha1258	{}	-3.10628	language	132.637		Baham	'Baham [baha1258][bdw]-l-'	2363	unknown/safe	West Bomberai	West Bomberai	#A9A9A9	-3.10628 132.637	FALSE
False	0	0	0		376	12218	abv	baha1259	{}	26.223615	language	50.580811		Baharna Arabic	'Baharna Arabic [baha1259][abv]-l-'	14783	unknown/safe	Semitic	Afro-Asiatic	#A9A9A9	26.223615 50.580811	FALSE
False	0	0	0		89	22852	bah	baha1260	{}	25.032149	language	-77.390587		Bahamas Creole English	'Bahamas Creole English [baha1260][bah]-l-'	23047	unknown/safe		Indo-European	#A9A9A9	25.032149 -77.390587	FALSE
False	5	0	0		151	8952	bhj	bahi1252	{}	27.3323	language	86.3949		Bahing	('Banenge [bane1244]','Dobo Lo [dobo1243]','Namber Sacha [namb1290]','Proca Lo [proc1238]','Rokhung [rokh1238]')'Bahing [bahi1252][bhj]-l-'	11697	definitely endangered		Sino-Tibetan	#EDED21	27.3323 86.3949	FALSE
False	0	0	0		142	4110	bjh	bahi1254	{}	-4.55527	language	142.832		Bahinemo	'Bahinemo [bahi1254][bjh]-l-'	6145	unknown/safe	Sepik Hill	Sepik	#A9A9A9	-4.55527 142.832	FALSE
False	7	0	0		143	6227	bdq	bahn1262	{}	14.0476	language	108.471		Bahnar	('Alakong [alak1252]','Bahnar Bonom [bahn1263]','Golar {Austroasiatic} [gola1254]','Jolong [jolo1240]','Kontum [kont1244]','Krem [krem1240]','Tolo [tolo1253]')'Bahnar [bahn1262][bdq]-l-'	8730	unknown/safe	Bahnaric	Austroasiatic	#A9A9A9	14.0476 108.471	FALSE
False	0	0	0		21	16036	bsu	baho1237	{}	-2.22572	language	121.707		Bahonsuai	'Bahonsuai [baho1237][bsu]-l-'	18143	definitely endangered		Austronesian	#EDED21	-2.22572 121.707	FALSE
False	0	0	0		162	162	bbf	baib1251	{}	-3.42672	language	141.345		Baibai	'Baibai [baib1251][bbf]-l-'	1281	unknown/safe		Baibai-Fas	#A9A9A9	-3.42672 141.345	FALSE
